{"version": 0.6, "generator": "Overpass API 0.7.62.11 87bfad18", "osm3s": {"timestamp_osm_base": "2026-04-08T07:41:15Z", "copyright": "The data included in this document is from www.openstreetmap.org. The data is made available under ODbL."}, "elements": [{"type": "node", "id": 293573361, "lat": 37.7923271, "lon": -122.4346848, "tags": {"amenity": "cafe", "check_date": "2025-12-09", "name": "Blue Bottle", "wheelchair": "yes"}}, {"type": "node", "id": 335444374, "lat": 37.7908279, "lon": -122.4025161, "tags": {"addr:city": "San Francisco", "addr:housenumber": "155", "addr:postcode": "94104", "addr:state": "CA", "addr:street": "Montgomery Street", "addr:unit": "161", "amenity": "cafe", "brand": "Peet's Coffee", "brand:wikidata": "Q1094101", "check_date": "2025-04-03", "cuisine": "coffee_shop", "level": "0", "name": "Peet's Coffee", "opening_hours": "Mo-Fr 05:30-17:00; Sa-Su off", "phone": "+1 415-576-8810", "takeaway": "yes", "wheelchair": "yes"}}, {"type": "node", "id": 351963628, "lat": 37.7866169, "lon": -122.414982, "tags": {"addr:city": "San Francisco", "addr:country": "US", "addr:housenumber": "700", "addr:state": "CA", "addr:street": "Geary Street", "air_conditioning": "yes", "amenity": "cafe", "check_date": "2026-02-17", "check_date:opening_hours": "2025-04-13", "name": "Angel Cafe & Deli", "opening_hours": "Mo,We-Sa 06:00-14:00; Su 07:00-14:00; Tu 06:00-14:00", "outdoor_seating": "yes", "payment:credit_cards": "yes", "payment:debit_cards": "yes", "phone": "+1 415 931 3467", "wheelchair": "yes"}}, {"type": "node", "id": 410845445, "lat": 37.7901681, "lon": -122.4154112, "tags": {"addr:city": "San Francisco", "addr:housenumber": "1191", "addr:postcode": "94109", "addr:street": "Pine Street", "amenity": "cafe", "check_date": "2023-01-09", "cuisine": "coffee_shop", "drink:beer": "yes", "drink:wine": "yes", "email": "info@anothercafesf.com", "indoor_seating": "yes", "inside_at_operator": "Bay ATM", "inside_atm": "1", "internet_access": "wlan", "name": "Another Cafe", "opening_hours": "Mo-Su 07:00-20:00", "opening_hours:url": "https://www.anothercafesf.com/about-us/", "outdoor_seating": "sidewalk", "payment:credit_cards": "yes", "phone": "+1 415 8575770", "smoking": "no", "takeaway": "yes", "toilets:access": "customers", "website": "https://www.anothercafesf.com/", "wheelchair": "limited", "wheelchair:description": "Mostly wheelchair accessible, except for upstairs additional seating."}}, {"type": "node", "id": 411083201, "lat": 37.7670162, "lon": -122.4219251, "tags": {"addr:city": "San Francisco", "addr:housenumber": "375", "addr:postcode": "94103", "addr:state": "CA", "addr:street": "Valencia Street", "amenity": "cafe", "check_date": "2023-02-26", "cost:coffee": "$3", "cuisine": "coffee_shop", "name": "Four Barrel Coffee", "name:en": "Four Barrel Coffee", "outdoor_seating": "yes", "payment:credit_cards": "yes", "wheelchair": "yes"}}, {"type": "node", "id": 418513660, "lat": 37.7645003, "lon": -122.4216812, "tags": {"addr:housenumber": "521", "addr:street": "Valencia Street", "amenity": "cafe", "name": "Muddy Waters", "opening_hours": "Mo-Su 07:00-14:00"}}, {"type": "node", "id": 528057543, "lat": 37.7682118, "lon": -122.422385, "tags": {"addr:housenumber": "298", "addr:street": "Valencia Street", "amenity": "cafe", "check_date": "2026-01-24", "internet_access": "wlan", "internet_access:fee": "no", "name": "Carlin's Cafe", "opening_hours": "Mo-Fr 06:30-16:00; Sa 06:30-14:00", "outdoor_seating": "no"}}, {"type": "node", "id": 586713622, "lat": 37.7648492, "lon": -122.4320119, "tags": {"addr:city": "San Francisco", "addr:housenumber": "2257", "addr:postcode": "94114", "addr:street": "Market Street", "amenity": "cafe", "brand": "Peet's Coffee", "brand:wikidata": "Q1094101", "cuisine": "coffee_shop", "internet_access": "yes", "name": "Peet's Coffee", "outdoor_seating": "no", "takeaway": "yes"}}, {"type": "node", "id": 647656706, "lat": 37.7710569, "lon": -122.432071, "tags": {"addr:city": "San Francisco", "addr:country": "US", "addr:housenumber": "201", "addr:postcode": "94117", "addr:state": "CA", "addr:street": "Steiner Street", "amenity": "cafe", "check_date": "2025-12-02", "cuisine": "sandwich;coffee_shop;salad;breakfast", "diet:vegan": "yes", "diet:vegetarian": "yes", "level": "0", "name": "Cafe R\u00e9veille", "opening_hours": "Mo-Su 07:00-19:30", "outdoor_seating": "yes", "phone": "+1 415-789-6258", "reservation": "no", "website": "https://www.cafereveille.com/lowerhaight", "wheelchair": "yes"}}, {"type": "node", "id": 647656785, "lat": 37.7721773, "lon": -122.4307315, "tags": {"addr:street": "Haight Street", "amenity": "cafe", "check_date": "2026-03-03", "diet:vegetarian": "yes", "level": "0", "name": "Cafe International", "undefined": "coffee_shop", "wheelchair": "yes"}}, {"type": "node", "id": 705410439, "lat": 37.759835, "lon": -122.397803, "tags": {"amenity": "cafe", "name": "Thinker's Cafe"}}, {"type": "node", "id": 725100826, "lat": 37.7871616, "lon": -122.410725, "tags": {"addr:city": "San Francisco", "addr:housenumber": "442", "addr:state": "CA", "addr:street": "Geary Street", "amenity": "cafe", "brand": "Starbucks", "brand:wikidata": "Q37158", "contact:website": "https://www.starbucks.com/store-locator/store/12071/geary-taylor-san-francisco-442-geary-street-san-francisco-ca-941021223-us", "cuisine": "coffee_shop", "internet_access": "wlan", "name": "Starbucks", "official_name": "Starbucks Coffee", "takeaway": "yes"}}, {"type": "node", "id": 732005606, "lat": 37.7861325, "lon": -122.4188458, "tags": {"addr:city": "San Francisco", "addr:country": "US", "addr:housenumber": "930", "addr:postcode": "94109", "addr:state": "CA", "addr:street": "Geary Street", "amenity": "cafe", "name": "Hoang Dat"}}, {"type": "node", "id": 761916174, "lat": 37.7765167, "lon": -122.4083959, "tags": {"addr:city": "San Francisco", "addr:housenumber": "1116", "addr:postcode": "94103", "addr:street": "Folsom Street", "amenity": "cafe", "cuisine": "pastry; sandwich; coffee; tea", "name": "Nosh Box", "opening_hours": "Tu-Th 07:00-17:00; Fr-Sa 07:00-22:00", "takeaway": "yes", "website": "https://www.noshboxsf.com/", "wheelchair": "yes"}}, {"type": "node", "id": 775379090, "lat": 37.7857739, "lon": -122.39675, "tags": {"amenity": "cafe", "check_date": "2024-02-11", "cuisine": "coffee_shop", "name": "Radiator", "takeaway": "yes", "wheelchair": "yes"}}, {"type": "node", "id": 808884914, "lat": 37.7854715, "lon": -122.4089827, "tags": {"addr:street": "Ellis Street", "amenity": "cafe", "check_date": "2025-04-10", "indoor_seating": "no", "name": "Mellis Cafe", "outdoor_seating": "yes"}}, {"type": "node", "id": 808930741, "lat": 37.7865355, "lon": -122.4081957, "tags": {"addr:city": "San Francisco", "addr:housenumber": "201", "addr:postcode": "94102", "addr:state": "CA", "addr:street": "Powell Street", "amenity": "cafe", "branch": "Powell & O'Farrell", "brand": "Starbucks", "brand:wikidata": "Q37158", "check_date": "2026-03-05", "cuisine": "coffee_shop", "level": "0", "name": "Starbucks", "official_name": "Starbucks Coffee", "phone": "+1 628-399-7188", "ref": "1040470", "takeaway": "yes", "was:name": "Starbucks", "website": "https://www.starbucks.com/store-locator/store/1040470/powell-o-farrell-201-powell-street-san-francisco-ca-941022205-us"}}, {"type": "node", "id": 808930783, "lat": 37.7866824, "lon": -122.407058, "tags": {"amenity": "cafe", "brand:wikidata": "Q510212", "check_date": "2024-09-14", "drive_through": "no", "level": "0", "name": "Boudin", "opening_hours": "08:00-17:00", "outdoor_seating": "yes", "website": "https://boudinbakery.com/location/union-square-macys-bakery-cafe/"}}, {"type": "node", "id": 819445015, "lat": 37.7881282, "lon": -122.4200791, "tags": {"addr:housenumber": "1220", "addr:street": "Polk Street", "amenity": "cafe", "check_date": "2023-08-09", "name": "Crepes Ooh La La", "opening_hours": "Mo-Sa 08:00-22:00; Su 08:00-21:00", "wheelchair": "yes"}}, {"type": "node", "id": 819447654, "lat": 37.7889803, "lon": -122.4171394, "tags": {"addr:city": "San Francisco", "addr:housenumber": "899", "addr:postcode": "94109", "addr:state": "CA", "addr:street": "Hyde Street", "amenity": "cafe", "check_date": "2021-08-11", "contact:facebook": "crostiniandjava", "contact:instagram": "crostiniandjava", "cuisine": "coffee_shop;sandwich", "drink:espresso": "yes", "email": "info@crostiniandjava.com", "name": "Crostini & Java", "opening_hours": "Mo-Fr 06:30-15:00; Sa-Su 07:30-15:00", "phone": "+1 415 8729226", "website": "https://www.crostiniandjava.com/"}}, {"type": "node", "id": 825967006, "lat": 37.7912435, "lon": -122.420991, "tags": {"addr:housenumber": "1549", "addr:street": "Polk Street", "amenity": "cafe", "check_date": "2023-01-13", "name": "Donuts & Things"}}, {"type": "node", "id": 825967065, "lat": 37.7904349, "lon": -122.4208088, "tags": {"addr:housenumber": "1475", "addr:postcode": "94109", "addr:street": "Polk Street", "amenity": "cafe", "check_date": "2023-02-20", "name": "Star Bagels"}}, {"type": "node", "id": 826961052, "lat": 37.7916777, "lon": -122.4210652, "tags": {"addr:floor": "0", "addr:housenumber": "1605", "addr:street": "Polk Street", "amenity": "cafe", "check_date": "2024-03-04", "internet_access": "wlan", "internet_access:fee": "customers", "name": "Moka Coffee", "outdoor_seating": "yes", "payment:cash": "yes", "payment:credit_cards": "yes", "payment:debit_cards": "yes", "takeaway": "yes", "toilets": "yes", "toilets:wheelchair": "yes", "wheelchair": "yes"}}, {"type": "node", "id": 1029097179, "lat": 37.7623688, "lon": -122.3982922, "tags": {"addr:housenumber": "1471", "addr:postcode": "94107", "addr:street": "Arkansas Street", "amenity": "cafe", "cuisine": "ice_cream;coffee_shop", "name": "Chatz"}}, {"type": "node", "id": 1125115617, "lat": 37.7717943, "lon": -122.433921, "tags": {"addr:housenumber": "700", "addr:postcode": "94117", "addr:street": "Haight Street", "amenity": "cafe", "check_date": "2025-11-26", "contact:phone": "+1 415-896-4172", "contact:website": "https://palmyrasanfrancisco.com/", "cuisine": "mediterranean", "diet:vegan": "yes", "diet:vegetarian": "yes", "indoor_seating": "yes", "level": "0", "name": "Palmyra Restaurant", "outdoor_seating": "yes", "takeaway": "yes", "wheelchair": "yes"}}, {"type": "node", "id": 1246390510, "lat": 37.789741, "lon": -122.4037025, "tags": {"addr:city": "San Francisco", "addr:housenumber": "199", "addr:state": "CA", "addr:street": "Sutter Street", "amenity": "cafe", "brand": "Blue Bottle Coffee", "brand:en": "Blue Bottle Coffee", "brand:ja": "\u30d6\u30eb\u30fc\u30dc\u30c8\u30eb\u30b3\u30fc\u30d2\u30fc", "brand:wikidata": "Q4928917", "cuisine": "coffee_shop", "name": "Blue Bottle Coffee", "name:en": "Blue Bottle Coffee", "name:ja": "\u30d6\u30eb\u30fc\u30dc\u30c8\u30eb\u30b3\u30fc\u30d2\u30fc", "opening_hours": "Mo-Su 06:30-17:30", "opening_hours:url": "https://bluebottlecoffee.com/cafes/sutter-street", "takeaway": "yes", "website": "https://bluebottlecoffee.com/cafes/sutter-street", "wheelchair": "yes"}}, {"type": "node", "id": 1282343098, "lat": 37.7851476, "lon": -122.4037187, "tags": {"addr:city": "San Francisco", "addr:housenumber": "99", "addr:street": "Mission Street", "amenity": "cafe", "check_date": "2024-09-04", "cuisine": "bubble_tea", "drive_through": "no", "level": "0", "name": "Feng Cha", "name:zh": "\u5949\u8336", "opening_hours": "Mo-Th,Su 11:00-20:00; Fr-Sa 11:00-21:00", "outdoor_seating": "yes", "payment:cash": "no", "payment:credit_cards": "yes", "payment:debit_cards": "yes", "wheelchair": "yes"}}, {"type": "node", "id": 1282408829, "lat": 37.7893669, "lon": -122.4007304, "tags": {"amenity": "cafe", "brand": "Peet's Coffee", "brand:wikidata": "Q1094101", "check_date": "2025-04-03", "cuisine": "coffee_shop", "level": "0", "name": "Peet's Coffee", "opening_hours": "Mo-Fr 06:30-16:00", "takeaway": "yes", "wheelchair": "yes"}}, {"type": "node", "id": 1282882085, "lat": 37.7865514, "lon": -122.3977478, "tags": {"amenity": "cafe", "check_date": "2024-02-11", "cuisine": "coffee_shop", "level": "0", "name": "Chatz Coffee", "takeaway": "only", "wheelchair": "yes"}}, {"type": "node", "id": 1293838091, "lat": 37.7870679, "lon": -122.4002114, "tags": {"addr:housenumber": "122", "addr:street": "New Montgomery Street", "amenity": "cafe", "check_date": "2023-04-30", "name": "Working Girls\u2019 Cafe", "outdoor_seating": "no", "was:name": "Working Girls' Cafe", "website": "https://www.workinggirlscafe.com/"}}, {"type": "node", "id": 1320562873, "lat": 37.7877716, "lon": -122.4010378, "tags": {"amenity": "cafe", "brand": "Starbucks", "brand:wikidata": "Q37158", "contact:website": "https://www.starbucks.com/store-locator/store/9031/74-new-montgomery-74-new-montgomery-street-suite-100-san-francisco-c", "cuisine": "coffee_shop", "name": "Starbucks", "official_name": "Starbucks Coffee", "outdoor_seating": "no", "takeaway": "yes"}}, {"type": "node", "id": 1393930496, "lat": 37.7869931, "lon": -122.3997314, "tags": {"amenity": "cafe", "name": "Cafe Madeleine", "opening_hours": "Mo-Fr 08:00-16:00", "outdoor_seating": "yes", "takeaway": "yes"}}, {"type": "node", "id": 1393986237, "lat": 37.783205, "lon": -122.4068571, "tags": {"addr:city": "San Francisco", "addr:housenumber": "67", "addr:state": "CA", "addr:street": "5th Street", "amenity": "cafe", "check_date": "2024-04-14", "cuisine": "mediterranean", "name": "zevi caf\u00e9 & bistro"}}, {"type": "node", "id": 1419791170, "lat": 37.7844745, "lon": -122.4081584}, {"type": "node", "id": 1419791183, "lat": 37.784453, "lon": -122.4081539}, {"type": "node", "id": 1419791191, "lat": 37.7844648, "lon": -122.4080625}, {"type": "node", "id": 1419791203, "lat": 37.7844863, "lon": -122.408067}, {"type": "node", "id": 1486063055, "lat": 37.7891202, "lon": -122.4084647, "tags": {"addr:city": "San Francisco", "addr:housenumber": "462", "addr:postcode": "94102", "addr:state": "CA", "addr:street": "Powell Street", "amenity": "cafe", "branch": "Powell & Sutter", "brand": "Starbucks", "brand:wikidata": "Q37158", "cuisine": "coffee_shop", "name": "Starbucks", "official_name": "Starbucks Coffee", "opening_hours": "Mo-Su 05:00-23:00", "phone": "+1 415-956-2321", "ref": "10551", "takeaway": "yes", "website": "https://www.starbucks.com/store-locator/store/10551/powell-sutter-462-powell-street-san-francisco-ca-941021504-us", "wheelchair": "yes"}}, {"type": "node", "id": 1493456487, "lat": 37.7770688, "lon": -122.41733, "tags": {"addr:city": "San Francisco", "addr:housenumber": "1390", "addr:postcode": "94102", "addr:state": "CA", "addr:street": "Market Street", "amenity": "cafe", "branch": "Fox Plaza", "brand": "Starbucks", "brand:wikidata": "Q37158", "check_date": "2025-08-19", "cuisine": "coffee_shop", "name": "Starbucks", "official_name": "Starbucks Coffee", "opening_hours": "Mo-Fr 05:00-19:00; Sa-Su 06:00-18:00", "phone": "+1 415-863-8332", "takeaway": "yes", "website": "https://www.starbucks.com/store-locator/store/13881/fox-plaza-1390-market-street-107-san-francisco-ca-941025403-"}}, {"type": "node", "id": 1581862146, "lat": 37.7910697, "lon": -122.4192372, "tags": {"addr:housenumber": "1415", "addr:street": "Larkin Street", "amenity": "cafe", "check_date": "2025-06-24", "contact:facebook": "souvenircoffeeco", "contact:instagram": "souvenir_coffee", "cuisine": "coffee_shop", "internet_access": "wlan", "internet_access:fee": "customers", "name": "Souvenir Coffee", "opening_hours": "Mo-Su 08:00-17:00", "outdoor_seating": "yes", "payment:cash": "yes", "payment:credit_cards": "yes", "payment:debit_cards": "yes", "website": "https://www.souvenir-coffee.com/"}}, {"type": "node", "id": 1586380649, "lat": 37.7642828, "lon": -122.4306267, "tags": {"addr:housenumber": "3489", "addr:postcode": "94114", "addr:street": "16th Street", "amenity": "cafe", "check_date": "2023-01-21", "cuisine": "dessert", "name": "U Dessert Story", "was:name": "Ike's Place"}}, {"type": "node", "id": 1610994013, "lat": 37.7632466, "lon": -122.4152866, "tags": {"addr:housenumber": "2128", "addr:postcode": "94110", "addr:street": "Folsom Street", "amenity": "cafe", "cuisine": "coffee_shop", "name": "Stable Cafe", "opening_hours": "Mo-Fr 08:00-16:00; Sa 09:00-16:00; Su 10:00-14:00", "outdoor_seating": "yes", "phone": "+1 415 552 1199", "terrace": "yes", "website": "https://www.stablecafe.com/"}}, {"type": "node", "id": 1611963577, "lat": 37.7763548, "lon": -122.4242299}, {"type": "node", "id": 1611963578, "lat": 37.7763711, "lon": -122.4241021}, {"type": "node", "id": 1613829032, "lat": 37.7870507, "lon": -122.398875, "tags": {"addr:city": "San Francisco", "addr:housenumber": "168", "addr:postcode": "94105", "addr:state": "CA", "addr:street": "2nd Street", "amenity": "cafe", "brand": "Blue Bottle Coffee", "brand:en": "Blue Bottle Coffee", "brand:ja": "\u30d6\u30eb\u30fc\u30dc\u30c8\u30eb\u30b3\u30fc\u30d2\u30fc", "brand:wikidata": "Q4928917", "check_date": "2023-09-30", "cuisine": "coffee_shop", "name": "Blue Bottle Coffee", "name:en": "Blue Bottle Coffee", "name:ja": "\u30d6\u30eb\u30fc\u30dc\u30c8\u30eb\u30b3\u30fc\u30d2\u30fc", "opening_hours": "Mo-Fr 06:30-17:00", "takeaway": "yes", "website": "https://bluebottlecoffee.com/cafes/2nd-street", "wheelchair": "yes"}}, {"type": "node", "id": 1613831308, "lat": 37.7886901, "lon": -122.4008757, "tags": {"addr:housenumber": "36", "addr:street": "2nd Street", "amenity": "cafe", "brand": "Starbucks", "brand:wikidata": "Q37158", "cuisine": "coffee_shop", "name": "Starbucks", "official_name": "Starbucks Coffee", "takeaway": "yes"}}, {"type": "node", "id": 1617283411, "lat": 37.7914682, "lon": -122.3994657, "tags": {"amenity": "cafe", "check_date": "2025-03-04", "cuisine": "coffee_shop", "name": "Flywheel Coffee Roasters", "takeaway": "yes"}}, {"type": "node", "id": 1627837843, "lat": 37.7893565, "lon": -122.3999969, "tags": {"amenity": "cafe", "name": "Neeto's Cafe"}}, {"type": "node", "id": 1700641974, "lat": 37.7770339, "lon": -122.4084399, "tags": {"addr:city": "San Francisco", "addr:housenumber": "270", "addr:postcode": "94103", "addr:street": "7th Street", "amenity": "cafe", "check_date": "2024-12-03", "check_date:opening_hours": "2024-12-03", "cost:coffee": "$2.5", "name": "Sightglass Coffee", "opening_hours": "Mo-Su 07:00-17:00", "wheelchair": "yes"}}, {"type": "node", "id": 1823804078, "lat": 37.7900511, "lon": -122.4011911, "tags": {"addr:city": "San Francisco", "addr:housenumber": "39", "addr:postcode": "94104", "addr:state": "CA", "addr:street": "Sutter Street", "amenity": "cafe", "check_date": "2024-06-18", "cuisine": "sandwich;pastry;italian", "internet_access": "wlan", "name": "Caff\u00e8 Bianco", "opening_hours": "Mo-Fr 06:30-17:30", "phone": "+1 415-780-1807"}}, {"type": "node", "id": 1847720030, "lat": 37.7770034, "lon": -122.4380361, "tags": {"addr:housenumber": "800", "addr:street": "Divisadero Street", "amenity": "cafe", "check_date": "2023-01-22", "diet:vegan": "yes", "diet:vegetarian": "yes", "name": "Eddie's Cafe", "opening_hours": "Mo-Fr 07:30-14:30; Sa 07:30-15:00; Su 08:00-15:00"}}, {"type": "node", "id": 1880208351, "lat": 37.7701928, "lon": -122.4034984, "tags": {"addr:city": "San Francisco", "addr:housenumber": "689", "addr:postcode": "94103", "addr:state": "CA", "addr:street": "Townsend Street", "amenity": "cafe", "branch": "8th & Townsend", "brand": "Starbucks", "brand:wikidata": "Q37158", "check_date": "2023-05-21", "cuisine": "coffee_shop", "name": "Starbucks", "official_name": "Starbucks Coffee", "opening_hours": "Mo-Fr 04:30-18:00; Sa-Su 05:00-18:00", "phone": "+1 415-255-7561", "takeaway": "yes", "website": "https://www.starbucks.com/store-locator/store/10208/8th-townsend-689-townsend-san-francisco-ca-941034907-us"}}, {"type": "node", "id": 1880215032, "lat": 37.7720246, "lon": -122.4092269, "tags": {"addr:city": "San Francisco", "addr:housenumber": "451", "addr:postcode": "94103", "addr:state": "CA", "addr:street": "9th Street", "amenity": "cafe", "check_date": "2022-08-20", "contact:facebook": "TelescopeCoffeeSF", "contact:instagram": "telescopecoffee_", "contact:tiktok": "telescopecoffee", "cuisine": "coffee_shop;pastry", "email": "telescopecoffee@gmail.com", "food": "yes", "indoor_seating": "no", "name": "Telescope Coffee", "opening_hours": "Mo-Fr 07:00-16:00; Sa-Su 07:00-15:00", "opening_hours:url": "https://www.telescopecoffee.com/", "outdoor_seating": "no", "takeaway": "only", "toilets": "no", "website": "https://www.telescopecoffee.com/", "wheelchair": "yes"}}, {"type": "node", "id": 1975916973, "lat": 37.7821173, "lon": -122.4171746, "tags": {"addr:city": "San Francisco", "addr:housenumber": "455", "addr:state": "CA", "addr:street": "Larkin Street", "amenity": "cafe", "check_date": "2023-05-18", "cuisine": "arab;deli;ice_cream;sandwich", "disused:amenity": "restaurant", "name": "DeliShack", "old_name": "Burmese Kitchen", "opening_hours": "Mo-Fr 07:00-21:00; Sa-Su 09:00-20:00"}}, {"type": "node", "id": 2095344770, "lat": 37.766319, "lon": -122.417422, "tags": {"addr:city": "San Francisco", "addr:housenumber": "433", "addr:postcode": "94103", "addr:street": "South Van Ness Avenue", "amenity": "cafe", "atm": "no", "check_date": "2026-01-24", "contact:email": "TheFlyingPigBistro@gmail.com", "cuisine": "sandwich", "drive_through": "no", "internet_access": "wlan", "name": "Flying Pig Bistro", "opening_hours": "Mo-Th 07:30-21:00; Fr 07:30-23:00; Sa 09:00-23:00; Su 09:00-17:00", "outdoor_seating": "yes", "phone": "+1-415-934-1234", "takeaway": "yes", "website": "https://flyingpigbistropub.com/", "wheelchair": "yes"}}, {"type": "node", "id": 2147409252, "lat": 37.777298, "lon": -122.4414902, "tags": {"addr:city": "San Francisco", "addr:country": "US", "addr:housenumber": "1799", "addr:postcode": "94115", "addr:state": "CA", "addr:street": "McAllister Street", "amenity": "cafe", "check_date": "2026-02-23", "cuisine": "coffee_shop", "internet_access": "wlan", "level": "0", "name": "Matching Half Cafe", "opening_hours": "Mo-Su 07:00-15:00", "website": "https://www.matchinghalfcafe.com/", "wheelchair": "yes"}}, {"type": "node", "id": 2156202862, "lat": 37.7671329, "lon": -122.399881, "tags": {"alt_name": "Rustico", "amenity": "cafe", "name": "A2 Cafe", "wheelchair": "yes"}}, {"type": "node", "id": 2187987262, "lat": 37.7664253, "lon": -122.4290387, "tags": {"addr:city": "San Francisco", "addr:housenumber": "260", "addr:state": "CA", "addr:street": "Church Street", "amenity": "cafe", "atm": "yes", "check_date": "2023-10-14", "check_date:opening_hours": "2022-09-25", "cuisine": "coffee_shop;sandwich", "dog": "no", "drink:bubble_tea": "yes", "indoor_seating": "yes", "internet_access": "yes", "name": "Church Street Cafe", "note:outdoor_seating": "Limited sidewalk seating", "opening_hours:signed": "no", "outdoor_seating": "sidewalk", "payment:cash": "only", "payment:credit_cards": "no", "toilets": "yes", "toilets:access": "customers", "wheelchair": "yes"}}, {"type": "node", "id": 2220968786, "lat": 37.7902253, "lon": -122.4220729, "tags": {"addr:city": "San Francisco", "addr:housenumber": "1560", "addr:postcode": "94109", "addr:state": "CA", "addr:street": "Van Ness Avenue", "amenity": "cafe", "branch": "Van Ness & California - WFB", "brand": "Starbucks", "brand:wikidata": "Q37158", "cuisine": "coffee_shop", "name": "Starbucks", "official_name": "Starbucks Coffee", "phone": "+1 415-749-0365", "ref": "14704", "takeaway": "yes", "website": "https://www.starbucks.com/store-locator/store/14704/van-ness-california-wfb-1560-van-ness-avenue-san-francisco-ca-941094606-us"}}, {"type": "node", "id": 2318141840, "lat": 37.7614816, "lon": -122.4352495, "tags": {"addr:housenumber": "464", "addr:postcode": "94114", "addr:street": "Castro Street", "amenity": "cafe", "name": "Cafe Mystique", "phone": "+1-415-865-9963", "website": "http://www.cafe-mystique.com"}}, {"type": "node", "id": 2318159226, "lat": 37.7610101, "lon": -122.4346633, "tags": {"addr:city": "San Francisco", "addr:housenumber": "4094", "addr:postcode": "94114", "addr:state": "CA", "addr:street": "18th Street", "amenity": "cafe", "branch": "4094 18th St.", "brand": "Starbucks", "brand:wikidata": "Q37158", "cuisine": "coffee_shop", "name": "Starbucks", "official_name": "Starbucks Coffee", "phone": "+1 415-626-6263", "ref": "16848", "takeaway": "yes", "website": "https://www.starbucks.com/store-locator/store/16848/4094-18th-st-4094-18th-street-san-francisco-ca-941142534-us"}}, {"type": "node", "id": 2321299135, "lat": 37.7601012, "lon": -122.434786, "tags": {"addr:city": "San Francisco", "addr:housenumber": "549", "addr:postcode": "94114", "addr:state": "CA", "addr:street": "Castro Street", "amenity": "cafe", "brand": "Philz Coffee", "brand:wikidata": "Q18156812", "cuisine": "coffee_shop", "name": "Philz Coffee", "opening_hours": "Sa-Su 06:00-18:00; Mo-Fr 05:30-18:00", "outdoor_seating": "yes", "phone": "+1 415-875-9656", "takeaway": "yes", "website": "https://www.philzcoffee.com/locations-sf"}}, {"type": "node", "id": 2321299158, "lat": 37.7599145, "lon": -122.435099, "tags": {"addr:postcode": "94114", "addr:street": "Castro Street", "amenity": "cafe", "name": "Castro Tarts", "wheelchair": "limited"}}, {"type": "node", "id": 2338836841, "lat": 37.775082, "lon": -122.4379846, "tags": {"addr:floor": "1", "addr:housenumber": "601", "addr:street": "Divisadero Street", "amenity": "cafe", "check_date": "2025-09-17", "cuisine": "coffee_shop;american;mexican;juice", "diet:Carne": "yes", "diet:chicken": "yes", "diet:dairy": "yes", "diet:dairy_free": "yes", "diet:gluten_free": "yes", "diet:lacto_vegetarian": "yes", "diet:lactose_free": "yes", "diet:meat": "yes", "diet:non-vegetarian": "yes", "diet:ovo_vegetarian": "yes", "diet:plant-based": "yes", "diet:vegan": "yes", "diet:vegetarian": "yes", "internet_access": "wlan", "internet_access:fee": "customers", "level": "0", "name": "Bean Bag Cafe", "opening_hours": "Mo-Th,Su 08:00-21:00; Fr-Sa 08:00-22:00", "outdoor_seating": "yes", "payment:mastercard": "yes", "payment:visa": "yes", "phone": "+1 415-563-3634", "website": "https://beanbag.cafe/", "wheelchair": "yes"}}, {"type": "node", "id": 2375537105, "lat": 37.7815774, "lon": -122.4325389, "tags": {"addr:city": "San Francisco", "addr:housenumber": "1301", "addr:postcode": "94115", "addr:state": "CA", "addr:street": "Fillmore Street", "amenity": "cafe", "check_date": "2023-07-29", "name": "The Fillmore Street Cafe"}}, {"type": "node", "id": 2403914322, "lat": 37.7629013, "lon": -122.4104153, "tags": {"addr:city": "San Francisco", "addr:housenumber": "2727", "addr:postcode": "94110", "addr:state": "CA", "addr:street": "Mariposa Street", "amenity": "cafe", "branch": "Mariposa & Bryant", "brand": "Starbucks", "brand:wikidata": "Q37158", "cuisine": "coffee_shop", "internet_access": "wlan", "internet_access:fee": "no", "name": "Starbucks", "official_name": "Starbucks Coffee", "phone": "+1 415-552-2649", "ref": "13383", "takeaway": "yes", "website": "https://www.starbucks.com/store-locator/store/13383/mariposa-bryant-2727-mariposa-st-san-francisco-ca-941101472-us"}}, {"type": "node", "id": 2411692096, "lat": 37.7770377, "lon": -122.4175698, "tags": {"addr:housenumber": "1390", "addr:postcode": "94102", "addr:street": "Market Street", "amenity": "cafe", "check_date": "2025-12-02", "cuisine": "sandwich", "level": "0", "name": "Andersen Bakery", "opening_hours": "Mo-Fr 07:00-15:00", "phone": "+1-415-757-0090", "website": "https://www.andersenbakeryusa.com/", "wheelchair": "yes"}}, {"type": "node", "id": 2411698457, "lat": 37.7763144, "lon": -122.4232552, "tags": {"amenity": "cafe", "brand": "Blue Bottle Coffee", "brand:en": "Blue Bottle Coffee", "brand:ja": "\u30d6\u30eb\u30fc\u30dc\u30c8\u30eb\u30b3\u30fc\u30d2\u30fc", "brand:wikidata": "Q4928917", "check_date": "2025-03-16", "cuisine": "coffee_shop", "internet_access": "no", "name": "Blue Bottle Coffee", "name:en": "Blue Bottle Coffee", "name:ja": "\u30d6\u30eb\u30fc\u30dc\u30c8\u30eb\u30b3\u30fc\u30d2\u30fc", "takeaway": "yes"}}, {"type": "node", "id": 2429468220, "lat": 37.7887697, "lon": -122.403832, "tags": {"addr:city": "San Francisco", "addr:housenumber": "101", "addr:postcode": "94108", "addr:state": "CA", "addr:street": "Post Street", "amenity": "cafe", "check_date": "2025-06-23", "internet_access": "yes", "name": "Capital One 360 Caf\u00e9", "opening_hours": "Mo-Fr 07:00-18:00", "payment:cash": "yes", "payment:credit_cards": "yes", "payment:debit_cards": "yes", "website": "http://cafes.capitalone360.com/san_francisco/", "wheelchair": "yes"}}, {"type": "node", "id": 2474058013, "lat": 37.7739857, "lon": -122.424226, "tags": {"addr:housenumber": "201", "addr:street": "Octavia Street", "amenity": "cafe", "check_date": "2024-08-01", "cuisine": "coffee_shop;sandwich", "internet_access": "wlan", "internet_access:fee": "no", "name": "Mercury Cafe", "opening_hours": "Mo-We 07:30-15:00; Th-Fr 07:30-16:00; Sa 08:00-16:00; Su 08:00-15:00", "outdoor_seating": "yes", "payment:mastercard": "yes", "payment:visa": "yes", "takeaway": "yes", "website": "https://www.mercurycafe.net/", "wheelchair": "limited"}}, {"type": "node", "id": 2508652411, "lat": 37.7723499, "lon": -122.4116673}, {"type": "node", "id": 2508652450, "lat": 37.7724444, "lon": -122.4117856}, {"type": "node", "id": 2508652469, "lat": 37.7721987, "lon": -122.4118587}, {"type": "node", "id": 2508652470, "lat": 37.7722919, "lon": -122.4119773}, {"type": "node", "id": 2540215572, "lat": 37.7764133, "lon": -122.4242419}, {"type": "node", "id": 2540215573, "lat": 37.7764296, "lon": -122.4241139}, {"type": "node", "id": 2576592003, "lat": 37.7864697, "lon": -122.4020303, "tags": {"addr:city": "San Francisco", "addr:housenumber": "692", "addr:postcode": "94105", "addr:street": "Mission Street", "amenity": "cafe", "cuisine": "coffee_shop", "indoor_seating": "yes", "internet_access": "yes", "name": "Grove To-Go", "opening_hours": "07:30-20:30", "operator": "The Grove", "outdoor_seating": "patio", "takeaway": "yes", "wheelchair": "yes"}}, {"type": "node", "id": 2612989373, "lat": 37.7613276, "lon": -122.4258214, "tags": {"addr:city": "San Francisco", "addr:housenumber": "501", "addr:street": "Dolores Street", "amenity": "cafe", "check_date": "2024-05-28", "cuisine": "coffee_shop", "diet:vegan": "yes", "diet:vegetarian": "yes", "internet_access": "yes", "name": "Dolores Park Cafe", "opening_hours": "Mo-Su 07:00-17:00", "outdoor_seating": "yes", "payment:cash": "yes", "payment:credit_cards": "yes", "payment:debit_cards": "yes"}}, {"type": "node", "id": 2616691213, "lat": 37.7904903, "lon": -122.399517, "tags": {"addr:city": "San Francisco", "addr:housenumber": "525", "addr:state": "CA", "addr:street": "Market Street", "amenity": "cafe", "brand": "Joe & The Juice", "brand:wikidata": "Q26221514", "check_date": "2025-12-02", "cuisine": "coffee_shop", "level": "0", "name": "Joe & The Juice", "takeaway": "yes", "wheelchair": "yes"}}, {"type": "node", "id": 2617878413, "lat": 37.7588672, "lon": -122.4114697}, {"type": "node", "id": 2617878448, "lat": 37.7590118, "lon": -122.4114826}, {"type": "node", "id": 2653086008, "lat": 37.7604925, "lon": -122.4171996, "tags": {"amenity": "cafe", "cuisine": "mexican", "name": "Ox Cafe"}}, {"type": "node", "id": 2654042330, "lat": 37.7588719, "lon": -122.4113872}, {"type": "node", "id": 2654042356, "lat": 37.7590164, "lon": -122.4114001}, {"type": "node", "id": 2689861324, "lat": 37.7885138, "lon": -122.4150968, "tags": {"addr:housenumber": "896", "addr:street": "Sutter Street", "amenity": "cafe", "check_date": "2024-05-04", "cuisine": "coffee_shop;sandwich", "diet:vegetarian": "yes", "drink:beer": "yes", "indoor_seating": "yes", "name": "Cup of Joy", "old_name": "Cup A Joe", "opening_hours": "Mo-Sa 07:00-19:00; Su 07:00-17:00", "outdoor_seating": "yes", "phone": "+1 415 5637745", "takeaway": "yes", "toilets": "yes", "toilets:access": "permissive", "toilets:unisex": "yes", "toilets:wheelchair": "yes", "wheelchair": "yes"}}, {"type": "node", "id": 2698381301, "lat": 37.7864812, "lon": -122.4183401, "tags": {"addr:city": "San Francisco", "addr:housenumber": "925", "addr:postcode": "94109", "addr:street": "Larkin Street", "amenity": "cafe", "contact:facebook": "janeonlarkin", "contact:instagram": "janeonlarkin", "cuisine": "coffee_shop", "name": "Jane On Larkin", "opening_hours": "Mo-Fr 07:00-16:00; Sa,Su 08:00-16:00", "opening_hours:url": "https://www.itsjane.com/location/jane-on-larkin/", "phone": "+1 415 8759532", "website": "https://www.itsjane.com/location/jane-on-larkin/"}}, {"type": "node", "id": 2718062344, "lat": 37.7719259, "lon": -122.430317, "tags": {"addr:housenumber": "254", "addr:street": "Fillmore Street", "amenity": "cafe", "check_date": "2026-02-24", "cuisine": "coffee_shop", "diet:vegan": "yes", "diet:vegetarian": "yes", "name": "Out There Coffee Roasters", "opening_hours": "Mo-Fr 07:30-14:00; Sa-Su 08:30-16:00", "start_date": "2018"}}, {"type": "node", "id": 2722757446, "lat": 37.7635121, "lon": -122.416377, "tags": {"addr:city": "San Francisco", "addr:housenumber": "3153", "addr:postcode": "94110", "addr:state": "CA", "addr:street": "17th Street", "amenity": "cafe", "check_date": "2026-01-24", "cuisine": "coffee_shop;juice", "diet:vegan": "yes", "indoor_seating": "yes", "internet_access": "wlan", "internet_access:fee": "customers", "name": "Robin's Cafe", "old_name": "Melange Market", "opening_hours": "Mo-Fr 08:00-16:00; Sa 08:00-14:00; Su off", "outdoor_seating": "sidewalk", "payment:mastercard": "yes", "payment:visa": "yes", "phone": "+1-415-549-8549", "website": "https://www.robinscafesf.com/", "wheelchair": "yes"}}, {"type": "node", "id": 2786939583, "lat": 37.7764572, "lon": -122.4379121, "tags": {"addr:city": "San Francisco", "addr:housenumber": "736", "addr:postcode": "94117", "addr:street": "Divisadero Street", "amenity": "cafe", "check_date": "2023-01-22", "cuisine": "coffee_shop", "diet:gluten_free": "yes", "diet:lactose_free": "yes", "gluten_free": "yes", "internet_access": "no", "name": "The Mill", "opening_hours": "Mo 07:00-21:00, Tu-Su 07:00-19:00", "shop": "bakery", "toilets:access": "public", "toilets:changing_table": "yes", "toilets:female": "yes", "toilets:gender_segregated": "no", "toilets:male": "yes", "toilets:num_chambers": "1", "toilets:unisex": "yes", "website": "http://themillsf.com/"}}, {"type": "node", "id": 2815132110, "lat": 37.7768129, "lon": -122.4180548, "tags": {"addr:city": "San Francisco", "addr:housenumber": "1", "addr:postcode": "94102", "addr:street": "Polk Street", "amenity": "cafe", "name": "Bar & Bean Fusion", "opening_hours": "Mo-We 09:00-22:30; Th 09:00-23:00; Fr,Sa 09:00-23:30; Su 09:00-21:00"}}, {"type": "node", "id": 2869372593, "lat": 37.7885328, "lon": -122.3981521, "tags": {"addr:city": "San Francisco", "addr:housenumber": "138", "addr:postcode": "94105", "addr:street": "Minna Street", "amenity": "cafe", "cuisine": "coffee_shop", "internet_access": "no", "name": "Special Xtra", "opening_hours": "Mo-Fr 07:30-16:00", "outdoor_seating": "no", "payment:cash": "yes", "payment:credit_cards": "no", "smoking": "no", "wheelchair": "yes"}}, {"type": "node", "id": 2881830804, "lat": 37.775488, "lon": -122.4159, "tags": {"addr:housenumber": "1398", "addr:street": "Mission Street", "amenity": "cafe", "name": "Cumaica"}}, {"type": "node", "id": 2895323815, "lat": 37.7752166, "lon": -122.4195185, "tags": {"addr:housenumber": "1500", "addr:postcode": "94102", "addr:street": "Market Street", "amenity": "cafe", "check_date": "2026-03-03", "cuisine": "coffee_shop;donut;bakery", "indoor_seating": "no", "level": "0", "name": "All Star Cafe", "opening_hours": "24/7", "outdoor_seating": "no", "phone": "+1 4152529888", "takeaway": "only", "wheelchair": "yes"}}, {"type": "node", "id": 2956095526, "lat": 37.7725007, "lon": -122.4130011, "tags": {"addr:city": "San Francisco", "addr:housenumber": "1415", "addr:postcode": "94103", "addr:state": "CA", "addr:street": "Folsom Street", "amenity": "cafe", "check_date": "2026-01-10", "cuisine": "coffee_shop", "internet_access": "yes", "name": "Sextant Coffee Roasters", "opening_hours": "Mo-Fr 08:00-16:00; Sa 09:00-16:00", "outdoor_seating": "yes", "phone": "+1-415-355-1415", "website": "https://sextantcoffee.com/", "website:menu": "https://sextantcoffee.square.site/"}}, {"type": "node", "id": 2988910736, "lat": 37.7751691, "lon": -122.410073, "tags": {"addr:housenumber": "1198", "addr:street": "Folsom Street", "amenity": "cafe", "check_date": "2024-03-31", "cuisine": "mexican", "level": "0", "name": "El Capitan Taqueria"}}, {"type": "node", "id": 3085515638, "lat": 37.7895579, "lon": -122.397598, "tags": {"addr:city": "San Francisco", "addr:housenumber": "100", "addr:postcode": "94105", "addr:state": "CA", "addr:street": "1st Street", "amenity": "cafe", "branch": "First & Mission", "brand": "Starbucks", "brand:wikidata": "Q37158", "cuisine": "coffee_shop", "internet_access": "wlan", "internet_access:fee": "no", "name": "Starbucks", "name:zh": "\u661f\u5df4\u514b", "official_name": "Starbucks Coffee", "phone": "+1 415-896-5044", "source": "www.starbucks.com", "takeaway": "yes", "website": "https://www.starbucks.com/store-locator/store/91222/first-mission-100-first-street-san-francisco-ca-941052634-us", "wheelchair": "yes"}}, {"type": "node", "id": 3317123885, "lat": 37.776777, "lon": -122.424779, "tags": {"addr:city": "San Francisco", "addr:housenumber": "500", "addr:postcode": "94102", "addr:state": "CA", "addr:street": "Hayes Street", "amenity": "cafe", "cuisine": "french", "email": "hayes@laboulangeriesf.com", "name": "La Boulangerie", "opening_hours": "07:30-15:30", "outdoor_seating": "yes", "phone": "+1 415-400-4451", "takeaway": "yes", "website": "https://www.laboulangeriesf.com"}}, {"type": "node", "id": 3321734312, "lat": 37.7760172, "lon": -122.4314951, "tags": {"amenity": "cafe", "name": "Alamo Square Cafe"}}, {"type": "node", "id": 3393420459, "lat": 37.7893321, "lon": -122.4068135, "tags": {"addr:city": "San Francisco", "addr:housenumber": "390", "addr:postcode": "94108", "addr:state": "CA", "addr:street": "Stockton Street", "amenity": "cafe", "branch": "390 Stockton at Sutter (Union", "brand": "Starbucks", "brand:wikidata": "Q37158", "cuisine": "coffee_shop", "internet_access": "wlan", "name": "Starbucks", "official_name": "Starbucks Coffee", "opening_hours": "Mo-Su 05:00-19:00", "phone": "+1 415-989-1637", "ref": "12349", "smoking": "no", "takeaway": "yes", "website": "https://www.starbucks.com/store-locator/store/12349/390-stockton-at-sutter-union-390-stockton-street-san-francisco-ca-941084670-us"}}, {"type": "node", "id": 3397864969, "lat": 37.7838846, "lon": -122.4032646, "tags": {"addr:city": "San Francisco", "addr:housenumber": "165", "addr:street": "4th Street", "amenity": "cafe", "brand": "Heytea", "brand:en": "Heytea", "brand:wikidata": "Q60875376", "brand:zh": "\u559c\u8336", "cuisine": "bubble_tea", "level": "0", "name": "Heytea", "name:en": "Heytea", "name:zh": "\u559c\u8336", "outdoor_seating": "no", "takeaway": "yes", "was:name": "Chronicle Books", "wheelchair": "yes"}}, {"type": "node", "id": 3397982293, "lat": 37.7859932, "lon": -122.4050282, "tags": {"addr:city": "San Francisco", "addr:housenumber": "773", "addr:postcode": "94103", "addr:state": "CA", "addr:street": "Market Street", "amenity": "cafe", "brand": "Peet's Coffee", "brand:wikidata": "Q1094101", "check_date": "2025-12-02", "cuisine": "coffee_shop", "internet_access": "yes", "level": "0", "name": "Peet's Coffee", "opening_hours": "06:00-19:00", "outdoor_seating": "yes", "phone": "+1-415-896-5029", "takeaway": "yes", "wheelchair": "yes"}}, {"type": "node", "id": 3409669041, "lat": 37.7898689, "lon": -122.4061028, "tags": {"addr:city": "San Francisco", "addr:housenumber": "330", "addr:postcode": "94108", "addr:state": "CA", "addr:street": "Sutter Street", "amenity": "cafe", "name": "Sutter Cafe", "phone": "+1-415-434-3309", "smoking": "no"}}, {"type": "node", "id": 3455075355, "lat": 37.783221, "lon": -122.3979963, "tags": {"addr:city": "San Francisco", "addr:housenumber": "345", "addr:street": "3rd Street", "amenity": "cafe", "check_date": "2024-12-21", "name": "Cafe du Soleil", "wheelchair": "yes"}}, {"type": "node", "id": 3489808695, "lat": 37.7897377, "lon": -122.420689, "tags": {"addr:city": "San Francisco", "addr:housenumber": "1401", "addr:postcode": "94164", "addr:state": "CA", "addr:street": "Polk Street", "amenity": "cafe", "check_date": "2023-02-09", "name": "Juniper", "opening_hours": "Mo-Tu off; We-Su 08:00-16:00", "wheelchair": "yes"}}, {"type": "node", "id": 3577596493, "lat": 37.7702061, "lon": -122.402253, "tags": {"addr:city": "San Francisco", "addr:housenumber": "684", "addr:postcode": "94103", "addr:state": "CA", "addr:street": "King Street", "amenity": "cafe", "check_date": "2023-09-03", "cuisine": "sushi;hawaiian", "name": "i'a poke", "opening_hours": "Mo-Fr 11:00-20:00", "outdoor_seating": "yes", "phone": "+1-415-757-0550", "website": "https://www.iapoke.com/"}}, {"type": "node", "id": 3641568148, "lat": 37.7762395, "lon": -122.4168763, "tags": {"addr:city": "San Francisco", "addr:housenumber": "1355", "addr:postcode": "94103", "addr:state": "CA", "addr:street": "Market Street", "amenity": "cafe", "brand": "Blue Bottle Coffee", "brand:en": "Blue Bottle Coffee", "brand:ja": "\u30d6\u30eb\u30fc\u30dc\u30c8\u30eb\u30b3\u30fc\u30d2\u30fc", "brand:wikidata": "Q4928917", "cuisine": "coffee_shop", "internet_access": "no", "name": "Blue Bottle Coffee", "name:en": "Blue Bottle Coffee", "name:ja": "\u30d6\u30eb\u30fc\u30dc\u30c8\u30eb\u30b3\u30fc\u30d2\u30fc", "opening_hours": "07:00-19:00", "takeaway": "yes", "website": "http://www.visitthemarket.com/shops/blue-bottle-coffee/"}}, {"type": "node", "id": 3642090338, "lat": 37.7868383, "lon": -122.3985675, "tags": {"addr:city": "San Francisco", "addr:housenumber": "186", "addr:postcode": "94105", "addr:state": "CA", "addr:street": "2nd Street", "amenity": "cafe", "check_date": "2023-07-01", "cuisine": "american", "name": "SOMA Eats", "wheelchair": "yes"}}, {"type": "node", "id": 3660306838, "lat": 37.7817167, "lon": -122.4186499, "tags": {"addr:city": "San Francisco", "addr:country": "US", "addr:housenumber": "450", "addr:postcode": "94102", "addr:state": "CA", "addr:street": "Golden Gate Avenue", "amenity": "cafe", "name": "Cafe 450 Eurest Dining", "phone": "+1 415 621 0874"}}, {"type": "node", "id": 3789688057, "lat": 37.7745113, "lon": -122.41094, "tags": {"amenity": "cafe", "check_date": "2024-03-31", "cuisine": "coffee_shop", "name": "caf\u00e9 suspiro", "opening_hours": "Mo-Th 08:00-16:00; Fr 08:00-15:00; Sa 09:00-15:00", "shop": "music", "website": "https://cafesuspiro.com/"}}, {"type": "node", "id": 3811445840, "lat": 37.7598361, "lon": -122.4235009, "tags": {"addr:city": "San Francisco", "addr:housenumber": "703", "addr:postcode": "94110", "addr:state": "CA", "addr:street": "Guerrero Street", "amenity": "cafe", "cuisine": "coffee_shop", "internet_access": "wlan", "name": "Java Supreme", "opening_hours": "Mo-Su,PH 07:00-14:00", "phone": "+1-415-647-2530", "smoking": "no"}}, {"type": "node", "id": 3811469214, "lat": 37.7631425, "lon": -122.4264617, "tags": {"addr:city": "San Francisco", "addr:housenumber": "398", "addr:postcode": "94110", "addr:state": "CA", "addr:street": "Dolores Street", "amenity": "cafe", "check_date": "2025-03-27", "check_date:opening_hours": "2025-03-27", "cuisine": "coffee_shop", "internet_access": "wlan", "name": "Maxfield's House of Caffeine", "opening_hours": "Mo-Fr 07:00-14:00; Sa 07:30-15:00; Su 08:00-15:00", "phone": "+1-415-255-6859", "smoking": "no"}}, {"type": "node", "id": 3998720681, "lat": 37.7640649, "lon": -122.4128335, "tags": {"amenity": "cafe", "cuisine": "coffee_shop", "name": "Andytown Coffee Roasters"}}, {"type": "node", "id": 4001273405, "lat": 37.7640891, "lon": -122.432964, "tags": {"addr:housenumber": "2299", "addr:postcode": "94114", "addr:street": "Market Street", "addr:unit": "A", "amenity": "cafe", "check_date": "2026-03-03", "check_date:opening_hours": "2026-03-03", "cuisine": "bubble_tea", "disused:amenity": "cafe", "name": "Oishii Matcha", "opening_hours": "Mo-Su 11:00-20:30", "phone": "+16282014327", "was:name": "Wildcraft Espresso Bar;Ritual coffee", "website": "https://www.oishiimatcha.com/home"}}, {"type": "node", "id": 4004801813, "lat": 37.7887695, "lon": -122.4206788, "tags": {"addr:city": "San Francisco", "addr:housenumber": "1416", "addr:state": "CA", "addr:street": "Bush Street", "amenity": "cafe", "check_date": "2023-07-10", "name": "Sammy's Cafe", "opening_hours": "Mo-Fr 08:30-15:00; Sa 08:30-14:30; Su off", "outdoor_seating": "no", "phone": "+1 415-749-1938"}}, {"type": "node", "id": 4004802370, "lat": 37.7885809, "lon": -122.4222054, "tags": {"addr:city": "San Francisco", "addr:housenumber": "1401", "addr:state": "CA", "addr:street": "Van Ness Avenue", "amenity": "cafe", "brand": "Starbucks", "brand:wikidata": "Q37158", "check_date": "2023-07-10", "contact:website": "https://www.starbucks.com/store-locator/store/11766/bush-van-ness-s-f-1401-van-ness-avenue-san-francisco-ca-941094607-us", "cuisine": "coffee_shop", "indoor_seating": "yes", "name": "Starbucks", "official_name": "Starbucks Coffee", "opening_hours": "Mo-Fr 06:00-19:00; Sa,Su 06:00-17:00", "outdoor_seating": "no", "takeaway": "yes", "wheelchair": "yes"}}, {"type": "node", "id": 4010355532, "lat": 37.765011, "lon": -122.4226685, "tags": {"amenity": "cafe", "name": "Stanza"}}, {"type": "node", "id": 4030511698, "lat": 37.7715221, "lon": -122.4369416, "tags": {"addr:city": "San Francisco", "addr:housenumber": "256", "addr:street": "Divisadero Street", "amenity": "cafe", "check_date": "2026-04-03", "cuisine": "pizza", "diet:vegan": "no", "diet:vegetarian": "yes", "level": "0", "name": "Bus Stop Pizza", "wheelchair": "yes"}}, {"type": "node", "id": 4030526213, "lat": 37.771413, "lon": -122.4350931, "tags": {"addr:housenumber": "783", "addr:street": "Haight Street", "amenity": "cafe", "check_date": "2026-03-03", "diet:vegan": "yes", "diet:vegetarian": "yes", "internet_access": "wlan", "level": "0", "name": "The Grind Cafe", "outdoor_seating": "yes", "wheelchair": "yes"}}, {"type": "node", "id": 4030552489, "lat": 37.7716059, "lon": -122.4369675, "tags": {"addr:city": "San Francisco", "addr:housenumber": "262", "addr:street": "Divisadero Street", "amenity": "cafe", "check_date": "2026-04-03", "cuisine": "coffee_shop", "diet:vegan": "yes", "diet:vegetarian": "yes", "level": "0", "name": "Souvenir Coffee", "opening_hours": "Mo-Fr 07:00-17:00; Sa-Su 08:00-17:00", "wheelchair": "yes"}}, {"type": "node", "id": 4030622426, "lat": 37.769195, "lon": -122.4315398, "tags": {"addr:housenumber": "2", "addr:street": "Sanchez Street", "amenity": "cafe", "check_date": "2026-01-24", "cuisine": "sandwich;salad;juice;coffee_shop;breakfast", "diet:vegan": "yes", "diet:vegetarian": "yes", "level": "0", "name": "Duboce Park Cafe", "opening_hours": "Mo-Fr 07:00-17:00; Sa 07:30-17:00; Su 08:00-17:00", "outdoor_seating": "yes", "website": "https://parkcafelife.com/locations/duboce-park-cafe/", "wheelchair": "yes"}}, {"type": "node", "id": 4039697295, "lat": 37.7914134, "lon": -122.4207322, "tags": {"addr:city": "San Francisco", "addr:housenumber": "1552", "addr:postcode": "94109", "addr:street": "Polk Street", "amenity": "cafe", "check_date": "2023-01-13", "name": "Common Sage"}}, {"type": "node", "id": 4062437468, "lat": 37.7796562, "lon": -122.4144116, "tags": {"amenity": "cafe", "indoor_seating": "no", "name": "United Nations Cafe", "outdoor_seating": "no", "takeaway": "only"}}, {"type": "node", "id": 4064534753, "lat": 37.7909494, "lon": -122.4189316, "tags": {"addr:city": "San Francisco", "addr:housenumber": "1494", "addr:state": "CA", "addr:street": "California Street", "amenity": "cafe", "check_date": "2022-08-23", "cuisine": "bubble_tea", "email": "Citypopcafe1@gmail.com", "name": "CityPop", "outdoor_seating": "sidewalk", "phone": "+1 415 996 0342", "takeaway": "yes", "was:name": "olea", "website": "https://www.citypopcafe.com/", "website:menu": "https://www.citypopcafe.com/menus"}}, {"type": "node", "id": 4079289934, "lat": 37.7592171, "lon": -122.4112877, "tags": {"addr:city": "San Francisco", "addr:housenumber": "3040", "addr:postcode": "94110", "addr:state": "CA", "addr:street": "20th Street", "amenity": "cafe", "cuisine": "coffee_shop", "name": "Sightglass Coffee"}}, {"type": "node", "id": 4129600387, "lat": 37.7913203, "lon": -122.4009518, "tags": {"addr:city": "San Francisco", "addr:housenumber": "115", "addr:postcode": "94104", "addr:state": "CA", "addr:street": "Sansome Street", "amenity": "cafe", "check_date": "2025-09-05", "cuisine": "coffee_shop", "internet_access": "no", "name": "Blue Bottle", "opening_hours": "Mo-Fr 07:00-19:00; Sa-Su 08:00-15:30"}}, {"type": "node", "id": 4247487817, "lat": 37.7647559, "lon": -122.4011997, "tags": {"addr:city": "San Francisco", "addr:housenumber": "1775", "addr:postcode": "94107", "addr:state": "CA", "addr:street": "17th Street", "amenity": "cafe", "brand": "Philz Coffee", "brand:wikidata": "Q18156812", "check_date": "2023-09-17", "cuisine": "coffee_shop", "internet_access": "wlan", "name": "Philz Coffee", "opening_hours": "06:00-16:30", "phone": "+1 415 814-8096", "takeaway": "yes", "website": "https://www.philzcoffee.com/"}}, {"type": "node", "id": 4249436492, "lat": 37.7833894, "lon": -122.4075539, "tags": {"amenity": "cafe", "check_date": "2024-04-14", "cuisine": "breakfast", "email": "mo@moz-cafe.com", "name": "Mo'z", "opening_hours": "Mo-Su 06:00-17:00", "phone": "+1 415 7771080", "website": "http://www.moz-cafe.com"}}, {"type": "node", "id": 4259001279, "lat": 37.7717782, "lon": -122.4167145, "tags": {"addr:city": "San Francisco", "addr:housenumber": "1599", "addr:postcode": "94103", "addr:state": "CA", "addr:street": "Howard Street", "amenity": "cafe", "name": "Gaslamp Cafe"}}, {"type": "node", "id": 4259744392, "lat": 37.7895248, "lon": -122.4078004, "tags": {"addr:city": "San Francisco", "addr:housenumber": "450", "addr:state": "CA", "addr:street": "Sutter Street", "addr:unit": "#7", "amenity": "cafe", "cuisine": "sandwich", "drink:coffee": "yes", "drink:espresso": "yes", "drink:tea": "yes", "indoor_seating": "yes", "name": "Sutter Street Cafe", "opening_hours": "Mo-Fr 08:00-16:00", "outdoor_seating": "no", "phone": "+1 415 3628342", "website": "http://ordersutterstreetcafe.com/", "wheelchair": "yes"}}, {"type": "node", "id": 4259754689, "lat": 37.7898887, "lon": -122.4118038, "tags": {"addr:housenumber": "882", "addr:street": "Bush Street", "amenity": "cafe", "cuisine": "coffee_shop;sandwich;bubble_tea", "name": "Fresh Brew Coffee", "opening_hours": "Mo-Fr 07:00-15:00; Sa-Su 08:00-16:00", "phone": "+1 415 5670915"}}, {"type": "node", "id": 4340535594, "lat": 37.7745253, "lon": -122.4306476, "tags": {"addr:housenumber": "548", "addr:street": "Fillmore Street", "amenity": "cafe", "check_date": "2024-11-17", "cuisine": "tea", "name": "The Center SF Tea House", "opening_hours": "Tu-Su 14:00-22:00"}}, {"type": "node", "id": 4343748158, "lat": 37.7913483, "lon": -122.404318, "tags": {"addr:city": "San Francisco", "addr:housenumber": "341", "addr:postcode": "94108", "addr:state": "CA", "addr:street": "Kearny Street", "amenity": "cafe", "changing_table": "no", "contact:instagram": "plenteaus", "contact:twitter": "plenteaca", "cuisine": "bubble_tea", "email": "plenteaus@gmail.com", "name": "Plentea", "note:toilets": "Pretty sure their toilets are currently closed.", "opening_hours": "Mo-Su 11:00-23:00", "outdoor_seating": "no", "phone": "+1 415 7570223", "reusable_packaging:offer": "yes", "takeaway": "yes", "toilets": "no", "website": "https://plentea.net/", "website:menu": "https://plentea.net/menu/", "wheelchair": "yes", "wheelchair:description": "Unrestricted access to counter and downstairs seating. Upstairs seating currently closed."}}, {"type": "node", "id": 4360378092, "lat": 37.7617712, "lon": -122.411796, "tags": {"addr:housenumber": "595", "addr:street": "Alabama Street", "amenity": "cafe", "name": "Tartine Manufactory", "name:en": "Tartine Manufactory"}}, {"type": "node", "id": 4413169392, "lat": 37.7880684, "lon": -122.3994576, "tags": {"addr:street": "Mission Street", "amenity": "cafe", "brand": "Peet's Coffee", "brand:wikidata": "Q1094101", "cuisine": "coffee_shop", "internet_access": "wlan", "name": "Peet's Coffee", "name:en": "Peet's Coffee & Tea", "takeaway": "yes"}}, {"type": "node", "id": 4418113995, "lat": 37.7726032, "lon": -122.4371654, "tags": {"addr:city": "San Francisco", "addr:housenumber": "324", "addr:street": "Divisadero Street", "amenity": "cafe", "check_date": "2023-01-21", "name": "That's My Jam"}}, {"type": "node", "id": 4556442969, "lat": 37.7851244, "lon": -122.4400158, "tags": {"addr:housenumber": "1661", "addr:street": "Divisadero Street", "amenity": "cafe", "check_date": "2023-02-17", "name": "Pete's Deli & Cafe"}}, {"type": "node", "id": 4558023336, "lat": 37.7864309, "lon": -122.440291, "tags": {"addr:housenumber": "1823", "addr:street": "Divisadero Street", "amenity": "cafe", "leisure": "fitness_centre", "name": "Park Gym", "sport": "boxing", "website": "https://www.theparkgym.com"}}, {"type": "node", "id": 4558023344, "lat": 37.785928, "lon": -122.4398341, "tags": {"addr:city": "San Francisco", "addr:housenumber": "1750", "addr:postcode": "94115", "addr:state": "CA", "addr:street": "Divisadero Street", "amenity": "cafe", "branch": "1750 Divisadero Street", "brand": "Starbucks", "brand:wikidata": "Q37158", "cuisine": "coffee_shop", "name": "Starbucks", "official_name": "Starbucks Coffee", "opening_hours": "Mo-Fr 05:00-18:00; Sa,Su 06:00-17:00", "phone": "+1 415-346-7193", "ref": "15893", "takeaway": "yes", "website": "https://www.starbucks.com/store-locator/store/15893/1750-divisadero-street-1750-divisadero-street-san-francisco-ca-941153454-"}}, {"type": "node", "id": 4567603390, "lat": 37.7817834, "lon": -122.420859, "tags": {"addr:city": "San Francisco", "addr:housenumber": "601", "addr:postcode": "94102", "addr:state": "CA", "addr:street": "Van Ness Avenue", "amenity": "cafe", "brand": "Peet's Coffee", "brand:wikidata": "Q1094101", "check_date:opening_hours": "2024-03-30", "cuisine": "coffee_shop", "indoor_seating": "yes", "name": "Peet's Coffee", "opening_hours": "Mo-Fr 05:30-18:00; Sa,Su 06:00-17:00", "opening_hours:url": "https://locations.peets.com/ll/US/CA/San-Francisco/601-Van-Ness", "outdoor_seating": "no", "phone": "+1 415 593 2661", "takeaway": "yes", "website": "https://locations.peets.com/ll/US/CA/San-Francisco/601-Van-Ness", "wheelchair": "yes"}}, {"type": "node", "id": 4620108621, "lat": 37.7714693, "lon": -122.4142519, "tags": {"amenity": "cafe", "name": "V Cafe"}}, {"type": "node", "id": 4620325598, "lat": 37.7713572, "lon": -122.413647, "tags": {"amenity": "cafe", "name": "Garage Cafe"}}, {"type": "node", "id": 4620325599, "lat": 37.7713238, "lon": -122.4136027, "tags": {"amenity": "cafe", "name": "Mr Nice"}}, {"type": "node", "id": 4624952481, "lat": 37.7813048, "lon": -122.4172998, "tags": {"addr:city": "San Francisco", "addr:housenumber": "401", "addr:state": "CA", "addr:street": "Golden Gate Avenue", "amenity": "cafe", "contact:yelp": "https://www.yelp.com/biz/the-coffee-smith-san-francisco-2", "cuisine": "coffee_shop;sandwich", "email": "thecoffeesmithsf@gmail.com", "name": "The Coffee Smith", "opening_hours": "Mo-Fr 06:15-15:15", "website": "https://www.thecoffeesmithsf.com/"}}, {"type": "node", "id": 4625129275, "lat": 37.7912305, "lon": -122.404296, "tags": {"addr:city": "San Francisco", "addr:housenumber": "335", "addr:postcode": "94108", "addr:state": "CA", "addr:street": "Kearny Street", "amenity": "cafe", "contact:email": "info@foundationcafesf.com", "contact:facebook": "FoundationCafe", "contact:instagram": "foundationcafe", "contact:phone": "+1-415-781-8880", "contact:rss": "http://www.foundationcafesf.com/home?format=rss", "contact:twitter": "FoundationCafe", "contact:website": "https://www.foundationcafesf.com/", "contact:website:menu": "https://www.foundationcafesf.com/menu", "contact:website:orders": "https://www.toasttab.com/foundationcafe/", "cuisine": "coffee_shop;filipino;sandwich", "name": "Foundation Cafe", "opening_hours": "Mo-Fr 07:00-15:00; PH off"}}, {"type": "node", "id": 4625221570, "lat": 37.783539, "lon": -122.4177347, "tags": {"addr:city": "San Francisco", "addr:housenumber": "611", "addr:state": "CA", "addr:street": "Larkin Street", "amenity": "cafe", "cuisine": "vietnamese", "indoor_seating": "yes", "name": "Lafayette Coffee Shop", "outdoor_seating": "no", "wheelchair": "yes"}}, {"type": "node", "id": 4628105878, "lat": 37.765649, "lon": -122.4126352, "tags": {"amenity": "cafe", "check_date:opening_hours": "2022-09-17", "indoor_seating": "yes", "name": "Dandelion Chocolate Factory & Caf\u00e9", "opening_hours:signed": "no", "outdoor_seating": "no", "website": "https://www.dandelionchocolate.com/"}}, {"type": "node", "id": 4628353544, "lat": 37.7906287, "lon": -122.404195, "tags": {"amenity": "cafe", "indoor_seating": "yes", "name": "Working Girls Cafe", "outdoor_seating": "no", "wheelchair": "yes"}}, {"type": "node", "id": 4628442792, "lat": 37.7838049, "lon": -122.4160942, "tags": {"addr:city": "San Francisco", "addr:housenumber": "309", "addr:state": "CA", "addr:street": "Hyde Street", "amenity": "cafe", "cuisine": "sandwich;vietnamese", "name": "Sing Sing", "name:zh": "\u661f\u661f\u5496\u5561\u5ba4", "opening_hours:signed": "no"}}, {"type": "node", "id": 4628752984, "lat": 37.7680622, "lon": -122.4135732, "tags": {"addr:housenumber": "1830", "addr:street": "Harrison Street", "addr:unit": "B", "amenity": "cafe", "check_date": "2024-01-27", "name": "Baklava Story"}}, {"type": "node", "id": 4631999418, "lat": 37.7904997, "lon": -122.404147, "tags": {"addr:housenumber": "253", "addr:street": "Kearny Street", "amenity": "cafe", "check_date": "2023-06-26", "cuisine": "bubble_tea;smoothie", "indoor_seating": "yes", "name": "Yokee Milk Tea", "outdoor_seating": "no", "wheelchair": "yes"}}, {"type": "node", "id": 4632000803, "lat": 37.7881914, "lon": -122.4036806, "tags": {"addr:city": "San Francisco", "addr:housenumber": "17", "addr:postcode": "94108", "addr:state": "CA", "addr:street": "Kearny Street", "amenity": "cafe", "check_date": "2024-06-27", "contact:facebook": "AshaTeaHouse", "contact:instagram": "ashateahouse", "contact:pinterest": "ashateahouse", "contact:twitter": "AshaTeaHouse", "cuisine": "bubble_tea", "email": "asha17kearny@gmail.com", "indoor_seating": "yes", "name": "Asha Tea House", "note:contact": "Social media accounts are for the brand", "opening_hours": "Mo-Fr 10:00-18:30; Sa 10:30-18:30; Su off", "opening_hours:url": "https://ashateahouse.com/pages/locations", "outdoor_seating": "no", "payment:cash": "yes", "payment:credit_cards": "yes", "payment:debit_cards": "yes", "phone": "+1 415 5493688", "takeaway": "yes", "website": "https://ashateahouse.com", "wheelchair": "yes"}}, {"type": "node", "id": 4636074798, "lat": 37.7895428, "lon": -122.4019684, "tags": {"addr:city": "San Francisco", "addr:housenumber": "44", "addr:postcode": "94104", "addr:state": "CA", "addr:street": "Montgomery Street", "amenity": "cafe", "branch": "44 Montgomery & Market St", "brand": "Starbucks", "brand:wikidata": "Q37158", "cuisine": "coffee_shop", "name": "Starbucks", "official_name": "Starbucks Coffee", "phone": "+1 415-397-4394", "ref": "16781", "takeaway": "yes", "website": "https://www.starbucks.com/store-locator/store/16781/44-montgomery-market-st-44-montgomery-street-san-francisco-ca-941044602-us", "wheelchair": "yes"}}, {"type": "node", "id": 4637137818, "lat": 37.7839596, "lon": -122.441494, "tags": {"addr:housenumber": "2401", "addr:street": "Post Street", "amenity": "cafe", "check_date": "2026-03-31", "level": "0", "name": "Opa Cafe", "phone": "+1-415-913-7745", "website": "https://opasf.com/", "wheelchair": "yes"}}, {"type": "node", "id": 4637571919, "lat": 37.7845601, "lon": -122.4142515, "tags": {"amenity": "cafe", "name": "Cafe Ellis"}}, {"type": "node", "id": 4637572294, "lat": 37.784101, "lon": -122.4144684, "tags": {"addr:housenumber": "325", "addr:street": "Leavenworth Street", "amenity": "cafe", "cafe": "yes", "check_date": "2023-07-05", "name": "Kim Huong"}}, {"type": "node", "id": 4637773270, "lat": 37.7847337, "lon": -122.4130515, "tags": {"addr:city": "San Francisco", "addr:housenumber": "411", "addr:state": "CA", "addr:street": "Ellis Street", "amenity": "cafe", "check_date": "2023-02-15", "cuisine": "vietnamese;sandwich", "description": "Vietnamese sandwiches and coffee", "drink:coffee": "yes", "name": "Mom Banh Mi", "outdoor_seating": "no", "phone": "+1 415-796-2492"}}, {"type": "node", "id": 4666687025, "lat": 37.7752822, "lon": -122.4161381, "tags": {"amenity": "cafe", "brand": "Peet's Coffee", "brand:wikidata": "Q1094101", "cuisine": "coffee_shop", "name": "Peet's Coffee", "opening_hours": "Mo-Fr 05:30-20:00; Sa, Su 06:00-19:00", "phone": "+1-415-610-4850", "takeaway": "yes"}}, {"type": "node", "id": 4742267441, "lat": 37.7752247, "lon": -122.4100116, "tags": {"addr:housenumber": "1198", "addr:street": "Folsom Street", "amenity": "cafe", "level": "0", "name": "Anton's Pizza & Deli"}}, {"type": "node", "id": 4765984643, "lat": 37.7861306, "lon": -122.4170995, "tags": {"addr:city": "San Francisco", "addr:housenumber": "835", "addr:postcode": "94109", "addr:state": "CA", "addr:street": "Geary Street", "amenity": "cafe", "check_date": "2022-08-15", "name": "Caf\u00e9 Gourmand"}}, {"type": "node", "id": 4806805086, "lat": 37.7817366, "lon": -122.410617, "tags": {"addr:city": "San Francisco", "addr:housenumber": "1019", "addr:postcode": "94103", "addr:state": "CA", "addr:street": "Market Street", "amenity": "cafe", "check_date": "2025-03-04", "check_date:opening_hours": "2024-12-03", "contact:facebook": "chaibarsf", "contact:instagram": "chaibarsf", "contact:yelp": "https://www.yelp.com/biz/chai-bar-by-david-rio-san-francisco-4", "cuisine": "coffee_shop", "diet:vegetarian": "yes", "drink:coffee": "yes", "drink:espresso": "yes", "drink:tea": "yes", "email": "info@chaibarsf.com", "food": "yes", "indoor_seating": "yes", "internet_access": "wlan", "internet_access:fee": "no", "name": "Chai Bar by David Rio", "opening_hours": "Mo-Fr 07:30-15:30; Sa 09:00-14:00; Su off", "opening_hours:signed": "no", "opening_hours:url": "https://www.chaibarsf.com/", "outdoor_seating": "yes", "phone": "+1 415 8650677", "smoking": "no", "website": "https://www.chaibarsf.com/", "website:menu": "https://www.chaibarsf.com/s/HangingMenu-web-2022-08.pdf", "wheelchair": "yes"}}, {"type": "node", "id": 4852448019, "lat": 37.7734163, "lon": -122.4388439, "tags": {"addr:city": "San Francisco", "addr:housenumber": "310", "addr:postcode": "94117", "addr:street": "Broderick Street", "amenity": "cafe", "brand": "Peet's Coffee", "brand:wikidata": "Q1094101", "check_date": "2025-12-02", "cuisine": "coffee_shop", "level": "0", "name": "Peet's Coffee", "opening_hours": "Mo-Sa 06:00-18:00", "takeaway": "yes"}}, {"type": "node", "id": 4852719621, "lat": 37.7864279, "lon": -122.439962, "tags": {"addr:housenumber": "1812", "addr:street": "Divisadero Street", "amenity": "cafe", "cuisine": "mexican", "name": "El Burrito Express"}}, {"type": "node", "id": 4884299090, "lat": 37.7695428, "lon": -122.4066627, "tags": {"amenity": "cafe", "cuisine": "juice;coffee_shop", "name": "Simply SF"}}, {"type": "node", "id": 4925135942, "lat": 37.760308, "lon": -122.4216245, "tags": {"amenity": "cafe", "check_date": "2025-05-25", "name": "Outset Coffee", "opening_hours": "Mo-Th 09:00-15:00; Fr-Su 09:00-17:00", "outdoor_seating": "yes", "smoking": "no", "wheelchair": "yes"}}, {"type": "node", "id": 5003690421, "lat": 37.772304, "lon": -122.437424, "tags": {"addr:city": "San Francisco", "addr:housenumber": "301", "addr:postcode": "94117", "addr:state": "CA", "addr:street": "Divisadero Street", "amenity": "cafe", "check_date": "2026-01-24", "cuisine": "coffee_shop", "internet_access": "no", "name": "Sightglass", "opening_hours": "Mo-Su 08:00-15:00", "outdoor_seating": "no", "phone": "+1-415-522-0112", "smoking": "no", "takeaway": "yes"}}, {"type": "node", "id": 5008465322, "lat": 37.7842017, "lon": -122.4169845, "tags": {"amenity": "cafe", "name": "Mom's Soul Groove", "name:en": "Mom's Soul Groove"}}, {"type": "node", "id": 5087510721, "lat": 37.7664758, "lon": -122.4196601, "tags": {"amenity": "cafe", "name": "Cafe La Noisette", "name:en": "Cafe La Noisette"}}, {"type": "node", "id": 5104412625, "lat": 37.7616782, "lon": -122.4200242, "tags": {"addr:housenumber": "3147", "addr:postcode": "94110", "addr:street": "18th Street", "amenity": "cafe", "check_date": "2024-05-28", "cuisine": "coffee_shop", "name": "Linea Cafe", "opening_hours": "Mo-Fr 07:00-14:00; Sa-Su 08:00-17:00", "phone": "+1-415-590-3011", "website": "https://lineacaffe.com/"}}, {"type": "node", "id": 5104555022, "lat": 37.7928525, "lon": -122.4042754, "tags": {"addr:city": "San Francisco", "addr:housenumber": "580", "addr:postcode": "94108", "addr:state": "CA", "addr:street": "California Street", "addr:unit": "150", "amenity": "cafe", "branch": "California & Kearny", "brand": "Starbucks", "brand:wikidata": "Q37158", "check_date": "2023-05-23", "cuisine": "coffee_shop", "name": "Starbucks", "official_name": "Starbucks Coffee", "opening_hours": "Mo-Fr 04:30-17:30; Sa-Su 06:30-14:00", "payment:credit_cards": "yes", "phone": "+1 415-792-2732", "takeaway": "yes", "website": "https://www.starbucks.com/store-locator/store/1018923/california-kearny-580-california-suite-150-san-francisco-ca-94104102", "wheelchair": "yes"}}, {"type": "node", "id": 5182462008, "lat": 37.7723447, "lon": -122.4294894, "tags": {"addr:housenumber": "438", "addr:postcode": "94117", "addr:street": "Haight Street", "amenity": "cafe", "check_date": "2025-03-04", "level": "0", "name": "The Radical Reading Room", "outdoor_seating": "no", "website": "https://theradicalreadingroom.org"}}, {"type": "node", "id": 5250557322, "lat": 37.7624143, "lon": -122.434726, "tags": {"addr:city": "San Francisco", "addr:housenumber": "3985", "addr:state": "CA", "addr:street": "17th Street", "amenity": "cafe", "name": "Cafe de Casa"}}, {"type": "node", "id": 5312617670, "lat": 37.7836659, "lon": -122.4326321, "tags": {"addr:city": "San Francisco", "addr:housenumber": "1522", "addr:postcode": "94115", "addr:state": "CA", "addr:street": "Fillmore Street", "amenity": "cafe", "cuisine": "bubble_tea", "delivery": "yes", "name": "Boba Guys", "opening_hours": "Mo-Th 11:00-21:00, Fr-Sa 12:00-23:00, Su 12:00-18:00", "outdoor_seating": "no", "payment:credit_cards": "yes", "takeaway": "yes", "website": "https://www.bobaguys.com/", "wheelchair": "yes"}}, {"type": "node", "id": 5376562309, "lat": 37.7694156, "lon": -122.4042196, "tags": {"amenity": "cafe", "cuisine": "sandwich", "name": "Caffe Pazzo", "outdoor_seating": "yes", "takeaway": "yes"}}, {"type": "node", "id": 5468101421, "lat": 37.7902062, "lon": -122.4093108, "tags": {"addr:housenumber": "724", "addr:postcode": "94108", "addr:street": "Bush Street", "amenity": "cafe", "cuisine": "coffee_shop;sandwich;bagel", "indoor_seating": "yes", "name": "Beanstalk Cafe", "opening_hours": "Mo-Su 07:30-15:00", "outdoor_seating": "sidewalk", "phone": "+1 415 5761966", "takeaway": "yes", "toilets": "yes", "toilets:access": "customers", "toilets:wheelchair": "yes", "wheelchair": "yes"}}, {"type": "node", "id": 5487246108, "lat": 37.7712915, "lon": -122.4051821, "tags": {"amenity": "cafe", "brand": "Peet's Coffee", "brand:wikidata": "Q1094101", "check_date": "2025-11-01", "cuisine": "coffee_shop", "name": "Peet's Coffee", "old_name": "Peet's Coffee & Tea", "opening_hours": "06:00-18:00", "outdoor_seating": "no", "start_date": "2018-06", "takeaway": "yes", "wheelchair": "yes"}}, {"type": "node", "id": 5538811238, "lat": 37.7626475, "lon": -122.397181, "tags": {"addr:city": "San Francisco", "addr:housenumber": "1426", "addr:postcode": "94107", "addr:state": "CA", "addr:street": "18th Street", "amenity": "cafe", "cuisine": "coffee_shop;salad", "name": "Le March\u00e9 Cezanne", "opening_hours": "Mo-Su 08:00-20:00", "phone": "+1-415-361-1496", "shop": "convenience", "website": "https://www.lemarchecezanne.com/"}}, {"type": "node", "id": 5538811239, "lat": 37.7624719, "lon": -122.3969073, "tags": {"addr:housenumber": "1415", "addr:postcode": "94107", "addr:street": "18th Street", "amenity": "cafe", "cuisine": "coffee_shop;salad", "name": "Provender", "opening_hours": "Mo-Fr 07:30-15:00; Sa,Su 08:00-17:00", "outdoor_seating": "yes", "website": "https://www.provendercoffee.com/"}}, {"type": "node", "id": 5595236177, "lat": 37.766574, "lon": -122.3971658, "tags": {"addr:city": "San Francisco", "addr:housenumber": "1002", "addr:postcode": "94107", "addr:state": "CA", "addr:street": "16th Street", "amenity": "cafe", "cuisine": "bubble_tea", "name": "Boba Guys Potrero", "opening_hours": "Mo-Th 11:00-19:00; Fr,Sa 11:00-20:00; Su 11:00-19:00", "website": "https://www.bobaguys.com/sf-bay-area-express"}}, {"type": "node", "id": 5683190173, "lat": 37.7664951, "lon": -122.4091188, "tags": {"addr:housenumber": "2300", "addr:street": "16th Street", "addr:unit": "240", "amenity": "cafe", "brand": "Peet's Coffee", "brand:wikidata": "Q1094101", "check_date": "2026-01-09", "cuisine": "coffee_shop", "name": "Peet's Coffee", "takeaway": "yes"}}, {"type": "node", "id": 5839056764, "lat": 37.7646577, "lon": -122.4027552, "tags": {"amenity": "cafe", "name": "Steep Brew"}}, {"type": "node", "id": 5891198685, "lat": 37.7819266, "lon": -122.4077866, "tags": {"addr:city": "San Francisco", "addr:housenumber": "952", "addr:postcode": "94103", "addr:state": "CA", "addr:street": "Mission Street", "amenity": "cafe", "check_date": "2024-04-14", "name": "Barbary Coast", "opening_hours": "Mo-Su 08:00-21:45", "phone": "+1 415-243-4400", "shop": "cannabis", "website": "http://barbarycoastsf.org"}}, {"type": "node", "id": 6075310389, "lat": 37.7590507, "lon": -122.4099362, "tags": {"amenity": "cafe", "name": "Rhea\u2019s Cafe"}}, {"type": "node", "id": 6188160959, "lat": 37.7876848, "lon": -122.4143208, "tags": {"addr:housenumber": "754", "addr:street": "Post Street", "amenity": "cafe", "description": "Local San Francisco micro-cafe specializing in mostly local, sustainable, and homemade ingredients.", "name": "Farm:Table", "opening_hours": "Mo-Fr 07:30-13:00; Sa, Su 08:00-14:00", "website": "https://www.farmtablesf.com/"}}, {"type": "node", "id": 6236532944, "lat": 37.7670978, "lon": -122.4291409, "tags": {"addr:city": "San Francisco", "addr:housenumber": "2101", "addr:postcode": "94114", "addr:state": "CA", "addr:street": "Market Street", "amenity": "cafe", "check_date": "2023-05-03", "cuisine": "coffee_shop", "name": "Verve Coffee Roasters", "outdoor_seating": "no"}}, {"type": "node", "id": 6250051862, "lat": 37.7921271, "lon": -122.404485, "tags": {"addr:city": "San Francisco", "addr:housenumber": "433", "addr:postcode": "94108", "addr:state": "CA", "addr:street": "Kearny Street", "amenity": "cafe", "contact:instagram": "originalcoffeebarsf", "cuisine": "coffee_shop", "email": "info@originalcoffeebarsf.com", "indoor_seating": "yes", "name": "Coffee Bar", "opening_hours": "Mo,Fr 07:00-12:00; Tu-Th 07:00-14:30; Sa,Su,PH off", "opening_hours:url": "https://www.originalcoffeebarsf.com/kearny-st", "phone": "+1 415-795-1214", "takeaway": "yes", "website": "https://www.originalcoffeebarsf.com/kearny-st"}}, {"type": "node", "id": 6252387627, "lat": 37.774828, "lon": -122.4033322, "tags": {"addr:housenumber": "18", "addr:street": "Boardman Place", "amenity": "cafe", "check_date": "2023-09-03", "cuisine": "vietnamese;sandwich", "name": "Dinosaurs", "opening_hours": "Mo-Fr 10:00-17:00; PH closed", "takeaway": "only"}}, {"type": "node", "id": 6409691738, "lat": 37.78656, "lon": -122.4004138}, {"type": "node", "id": 6409691739, "lat": 37.7863061, "lon": -122.4004938}, {"type": "node", "id": 6409691741, "lat": 37.7864627, "lon": -122.4002918}, {"type": "node", "id": 6409691743, "lat": 37.7864034, "lon": -122.4006148}, {"type": "node", "id": 6475573038, "lat": 37.7650661, "lon": -122.3998625, "tags": {"addr:city": "San Francisco", "addr:housenumber": "1600", "addr:postcode": "94107", "addr:state": "CA", "addr:street": "17th Street", "amenity": "cafe", "name": "La Lucha", "phone": "+1-415-252-1330", "website": "https://www.theeparkside.com"}}, {"type": "node", "id": 6488820630, "lat": 37.788263, "lon": -122.409564, "tags": {"addr:city": "San Francisco", "addr:housenumber": "470", "addr:postcode": "94102", "addr:state": "CA", "addr:street": "Post Street", "amenity": "cafe", "check_date": "2025-11-08", "cuisine": "coffee_shop;sandwich", "name": "Cafe La Tazita", "opening_hours": "Mo-Su 08:00-15:00", "outdoor_seating": "no", "phone": "+1 415-872-9067", "website": "https://cafelatazita.com/"}}, {"type": "node", "id": 6488820632, "lat": 37.7882381, "lon": -122.4097557, "tags": {"addr:housenumber": "488", "addr:street": "Post Street", "amenity": "cafe", "name": "Caf\u00e9 Encore", "opening_hours:signed": "no", "outdoor_seating": "yes"}}, {"type": "node", "id": 6566538586, "lat": 37.7608986, "lon": -122.4216695, "tags": {"addr:housenumber": "746", "addr:street": "Valencia Street", "amenity": "cafe", "check_date": "2025-01-22", "name": "Craftsman and Wolves", "opening_hours": "Mo-Fr 07:30-15:30; Sa-Su 08:00-16:00"}}, {"type": "node", "id": 6604085453, "lat": 37.7789486, "lon": -122.415473, "tags": {"amenity": "cafe", "cuisine": "coffee_shop;sandwich", "indoor": "area", "level": "-1", "level:ref": "L", "name": "Poets Cafe", "not:brand:wikidata": "Q1094101", "opening_hours": "Sa,Su off; Mo-Fr 08:30-15:30", "opening_hours:url": "https://sfpl.org/locations/main-library/poets-cafe", "operator": "Peet\u2019s", "operator:wikidata": "Q1094101", "website": "https://sfpl.org/locations/main-library/poets-cafe"}}, {"type": "node", "id": 6611213081, "lat": 37.7927911, "lon": -122.4018569, "tags": {"addr:city": "San Francisco", "addr:housenumber": "70", "addr:postcode": "94104", "addr:state": "CA", "addr:street": "Leidesdorff Street", "amenity": "cafe", "email": "info@localrootssf.com", "name": "Local Roots", "opening_hours": "Mo-Fr 07:00-15:00", "outdoor_seating": "yes", "phone": "+1 415-576-1144", "takeaway": "yes", "website": "https://www.localrootssf.com/"}}, {"type": "node", "id": 6734155320, "lat": 37.7645147, "lon": -122.4379445, "tags": {"amenity": "cafe", "name": "Cafe Josephine", "opening_hours": "Mo off; Tu-Fr 09:30-15:00; Sa 09:30-16:30; Su off", "website": "https://www.randallmuseum.org/cafe-josephine/"}}, {"type": "node", "id": 7223648479, "lat": 37.789174, "lon": -122.3970562}, {"type": "node", "id": 7223650149, "lat": 37.7884958, "lon": -122.3977567}, {"type": "node", "id": 7223650165, "lat": 37.7880646, "lon": -122.3984601}, {"type": "node", "id": 7223650166, "lat": 37.7879802, "lon": -122.3985672}, {"type": "node", "id": 7223650172, "lat": 37.7885579, "lon": -122.397835}, {"type": "node", "id": 7223662385, "lat": 37.7878854, "lon": -122.3986873}, {"type": "node", "id": 7502504167, "lat": 37.7859683, "lon": -122.4009069, "tags": {"addr:postcode": "94103", "amenity": "cafe", "cuisine": "coffee_shop", "level": "1", "name": "Steps Coffee", "opening_hours": "Fr-Tu 09:30-16:30; Th 11:00-18:00", "website": "https://www.sfmoma.org/visit/dining-at-sfmoma/#steps-coffee"}}, {"type": "node", "id": 8248612191, "lat": 37.7591647, "lon": -122.435253, "tags": {"addr:city": "San Francisco", "addr:housenumber": "4117", "addr:state": "CA", "addr:street": "19th Street", "amenity": "cafe", "check_date": "2025-03-25", "cuisine": "coffee_shop", "name": "Spike's Coffees and Teas", "opening_hours": "Mo-Fr 07:00-17:00; Sa-Su 07:30-17:00", "payment:cash": "yes", "payment:credit_cards": "yes", "payment:debit_cards": "yes", "phone": "+1 415-626-5573", "website": "https://spikescoffee.com/", "wheelchair": "no"}}, {"type": "node", "id": 8660781398, "lat": 37.7676342, "lon": -122.4005752, "tags": {"addr:housenumber": "186", "addr:street": "Hooper Street", "amenity": "cafe", "name": "Makers Cafe", "website": "https://cca.cafebonappetit.com/"}}, {"type": "node", "id": 8670068298, "lat": 37.7763621, "lon": -122.4241676}, {"type": "node", "id": 8689758450, "lat": 37.7763302, "lon": -122.4150671, "tags": {"addr:housenumber": "98", "addr:postcode": "94103", "addr:street": "9th Street", "amenity": "cafe", "cuisine": "burger;sandwich;breakfast;asian;local;american;noodle;bagel;donut", "internet_access": "wlan", "name": "All Star Cafe", "opening_hours": "Mo-Sa 06:15-17:45; Su 07:00-17:45", "phone": "+1 415-863-4949", "website": "https://www.grubhub.com/restaurant/all-star-cafe-98-9th-st-san-francisco/321637"}}, {"type": "node", "id": 8720718019, "lat": 37.7789075, "lon": -122.4170708}, {"type": "node", "id": 8720718020, "lat": 37.778858, "lon": -122.4170608}, {"type": "node", "id": 8720718021, "lat": 37.7788363, "lon": -122.4172329}, {"type": "node", "id": 8720718022, "lat": 37.7788829, "lon": -122.4172423}, {"type": "node", "id": 8720718023, "lat": 37.7788867, "lon": -122.4172121}, {"type": "node", "id": 8720718024, "lat": 37.7789016, "lon": -122.4172151}, {"type": "node", "id": 8720718025, "lat": 37.7789111, "lon": -122.4171396}, {"type": "node", "id": 8720718026, "lat": 37.7788991, "lon": -122.4171372}, {"type": "node", "id": 8815131920, "lat": 37.7630122, "lon": -122.4283567, "tags": {"amenity": "cafe", "diet:vegetarian": "yes", "indoor_seating": "yes", "name": "Morning Due Caf\u00e9", "outdoor_seating": "yes", "takeaway": "yes", "wheelchair": "yes"}}, {"type": "node", "id": 8870317017, "lat": 37.7611704, "lon": -122.434173, "tags": {"addr:housenumber": "4058", "addr:postcode": "94114", "addr:street": "18th Street", "amenity": "cafe", "internet_access": "wlan", "name": "Castro Country Club", "opening_hours": "Mo-Su 09:00-19:00"}}, {"type": "node", "id": 9046799429, "lat": 37.771409, "lon": -122.4369401, "tags": {"addr:city": "San Francisco", "addr:housenumber": "250", "addr:postcode": "94117", "addr:state": "CA", "addr:street": "Divisadero Street", "amenity": "cafe", "check_date": "2026-04-03", "contact:instagram": "https://www.instagram.com/teaandothers", "cuisine": "bubble_tea", "diet:vegan": "yes", "diet:vegetarian": "yes", "email": "info@teaandothers.com", "indoor_seating": "no", "name": "Tea & Others", "opening_hours": "Mo-Fr 12:00-18:00; Sa-Su 11:00-18:00", "outdoor_seating": "no", "payment:credit_cards": "yes", "phone": "+1 415-864-4920", "website": "http://teaandothers.com/", "wheelchair": "yes"}}, {"type": "node", "id": 9194418334, "lat": 37.7862881, "lon": -122.4102178, "tags": {"addr:housenumber": "320", "addr:street": "O'Farrell Street", "amenity": "cafe", "check_date": "2023-08-27", "cuisine": "bubble_tea", "email": "blacksugarboba@gmail.com", "name": "Black Sugar", "opening_hours": "Mo off; Tu-Su 12:00-17:00", "outdoor_seating": "no", "payment:cash": "yes", "payment:credit_cards": "yes", "phone": "+1 415 5212022", "takeaway": "yes", "website": "https://www.blacksugarboba.com/", "wheelchair": "yes"}}, {"type": "node", "id": 9200292423, "lat": 37.78488, "lon": -122.4317191, "tags": {"amenity": "cafe", "check_date": "2023-01-06", "contact:facebook": "matchacafemaikosf", "contact:instagram": "matchacafemaiko", "cuisine": "bubble_tea;ice_cream", "description": "Matcha soft-serve and drinks", "indoor_seating": "no", "level": "0", "name": "Matcha Cafe Maiko", "opening_hours": "Mo-Th 11:30-21:00; Fr-Sa 11:30-22:00; Su 11:30-21:00", "outdoor_seating": "no", "payment:credit_cards": "yes", "phone": "+1 415 7570919", "takeaway": "yes", "website": "https://www.matchacafe-maiko.com/eng/", "wheelchair": "yes"}}, {"type": "node", "id": 9200430819, "lat": 37.7852392, "lon": -122.4303113}, {"type": "node", "id": 9203586541, "lat": 37.7850838, "lon": -122.4309081}, {"type": "node", "id": 9203586542, "lat": 37.7851275, "lon": -122.4309171}, {"type": "node", "id": 9203586543, "lat": 37.7851359, "lon": -122.4308518}, {"type": "node", "id": 9203586544, "lat": 37.7850923, "lon": -122.4308428}, {"type": "node", "id": 9203586566, "lat": 37.7851395, "lon": -122.4303768}, {"type": "node", "id": 9203586567, "lat": 37.7851195, "lon": -122.4303731}, {"type": "node", "id": 9203586568, "lat": 37.7851292, "lon": -122.4302906}, {"type": "node", "id": 9203586569, "lat": 37.785173, "lon": -122.4303831}, {"type": "node", "id": 9203586570, "lat": 37.7851827, "lon": -122.4303007}, {"type": "node", "id": 9203586572, "lat": 37.7852295, "lon": -122.4303938}, {"type": "node", "id": 9258477743, "lat": 37.7874194, "lon": -122.433406, "tags": {"addr:city": "San Francisco", "addr:housenumber": "1910", "addr:postcode": "94115", "addr:state": "CA", "addr:street": "Fillmore Street", "amenity": "cafe", "check_date": "2023-07-29", "cuisine": "coffee_shop", "name": "Compton's Coffee House", "outdoor_seating": "yes", "payment:mastercard": "yes", "payment:visa": "yes", "phone": "+1 415 416 6173", "website": "https://comptonscoffeehouse.com/", "wheelchair": "yes"}}, {"type": "node", "id": 9299593122, "lat": 37.7884207, "lon": -122.402818, "tags": {"addr:housenumber": "652", "addr:street": "Market Street", "amenity": "cafe", "brand": "CoCo", "brand:wikidata": "Q65084369", "check_date": "2025-04-03", "cuisine": "bubble_tea", "indoor_seating": "yes", "level": "0", "name": "CoCo Fresh Tea & Juice", "opening_hours": "Mo-Su 11:30-19:00", "outdoor_seating": "no", "short_name": "CoCo", "takeaway": "yes", "wheelchair": "yes"}}, {"type": "node", "id": 9301912409, "lat": 37.7871159, "lon": -122.4044766, "tags": {"addr:housenumber": "740A", "addr:street": "Market Street", "amenity": "cafe", "check_date": "2025-04-03", "indoor_seating": "no", "level": "0", "name": "Cafe Dolci", "outdoor_seating": "no", "takeaway": "only", "wheelchair": "yes"}}, {"type": "node", "id": 9339818287, "lat": 37.7877353, "lon": -122.4120028, "tags": {"addr:city": "San Francisco", "addr:housenumber": "611", "addr:state": "CA", "addr:street": "Post Street", "amenity": "cafe", "check_date": "2023-07-25", "cuisine": "coffee_shop", "email": "joysplacecafe@gmail.com", "internet_access": "wlan", "internet_access:fee": "customers", "name": "Joy's Place", "opening_hours": "Mo-Fr 08:00-20:00; Sa-Su 08:00-18:00", "outdoor_seating": "no", "payment:credit_cards": "yes", "phone": "+1 415 8171391", "website": "https://joysplacecafe.com/", "wheelchair": "yes"}}, {"type": "node", "id": 9339973638, "lat": 37.7891926, "lon": -122.4098437, "tags": {"addr:city": "San Francisco", "addr:housenumber": "562", "addr:postcode": "94102", "addr:state": "CA", "addr:street": "Sutter Street", "amenity": "cafe", "cuisine": "coffee_shop", "name": "Bluestone Lane", "opening_hours": "Mo-Su 07:00-15:00", "phone": "+1 718 3746858", "website": "https://bluestonelane.com/coffee-shops/theatre-district-562-sutter-st-san-francisco/"}}, {"type": "node", "id": 9341088550, "lat": 37.791139, "lon": -122.4022624, "tags": {"addr:city": "San Francisco", "addr:housenumber": "220", "addr:postcode": "94104", "addr:state": "CA", "addr:street": "Montgomery Street", "addr:unit": "148", "amenity": "cafe", "brand:wikidata": "Q969999", "check_date": "2025-04-03", "cuisine": "coffee_shop", "level": "0", "name": "Red Bay Coffee", "opening_hours": "Mo-Fr 07:00-17:30; Sa-Su off", "outdoor_seating": "no", "takeaway": "yes", "wheelchair": "yes"}}, {"type": "node", "id": 9383026248, "lat": 37.7917415, "lon": -122.4026733, "tags": {"addr:city": "San Francisco", "addr:housenumber": "235", "addr:postcode": "94104", "addr:state": "CA", "addr:street": "Montgomery Street", "amenity": "cafe", "brand": "Joe & The Juice", "brand:wikidata": "Q26221514", "check_date": "2025-09-05", "cuisine": "coffee_shop", "internet_access": "yes", "level": "0", "name": "Joe & The Juice", "opening_hours": "Mo-Su 09:00-19:00", "takeaway": "yes", "website": "https://orders.joejuice.com/store/09fa82d9-c360-4378-90a8-fa4ce78a2aaf", "wheelchair": "yes"}}, {"type": "node", "id": 9397915518, "lat": 37.7886956, "lon": -122.4137168, "tags": {"addr:housenumber": "800", "addr:street": "Sutter Street", "amenity": "cafe", "check_date": "2023-07-27", "drink:beer": "yes", "name": "Cafe Bean", "outdoor_seating": "yes", "phone": "+1 415-928-0888"}}, {"type": "node", "id": 9408415652, "lat": 37.7882886, "lon": -122.4153113, "tags": {"addr:city": "San Francisco", "addr:housenumber": "901", "addr:postcode": "94109", "addr:state": "CA", "addr:street": "Sutter Street", "amenity": "cafe", "check_date": "2024-05-04", "cuisine": "turkish;kebab", "diet:vegan": "no", "diet:vegetarian": "yes", "indoor_seating": "yes", "name": "Berlin D\u00f6ner & Kebab House", "old_name": "SF Breakfast Cafe", "outdoor_seating": "no", "phone": "+1-415-914-5598", "takeaway": "yes", "website": "https://www.berlindonerkebabhouse.com/", "wheelchair": "yes"}}, {"type": "node", "id": 9417009224, "lat": 37.7771768, "lon": -122.4248533, "tags": {"addr:city": "San Francisco", "addr:housenumber": "535", "addr:state": "CA", "addr:street": "Octavia Street", "amenity": "cafe", "branch": "Hayes Valley", "check_date": "2021-08-12", "contact:facebook": "nayadessertcafe", "contact:instagram": "nayadessertcafe", "cuisine": "dessert;ice_cream", "email": "nayacafesf@gmail.com", "name": "NaYa Dessert Cafe", "opening_hours": "Mo-Su 12:00-23:00", "opening_hours:url": "https://www.nayadessertcafe.com/", "phone": "+1 415 9268638", "website": "https://www.nayadessertcafe.com/"}}, {"type": "node", "id": 9417077145, "lat": 37.7846198, "lon": -122.40338, "tags": {"addr:city": "San Francisco", "amenity": "cafe", "brand": "Sharetea", "brand:wikidata": "Q64827032", "contact:facebook": "ShareteaMetreon", "contact:instagram": "shareteametreon", "cuisine": "bubble_tea", "fixme": "The URL seems out of date, and their instagram is newer than their Facebook", "indoor": "yes", "level": "0", "name": "Sharetea", "name:en": "Sharetea", "name:zh": "\u6b47\u8173\u4ead", "opening_hours": "Mo-Th 11:00-19:30; Fr-Su 11:00-20:30", "opening_hours:url": "https://www.shareteametreon.online/", "phone": "+1 415 2270888", "takeaway": "yes", "url": "https://www.shareteametreon.com/", "website": "https://www.shareteametreon.online/", "wheelchair": "yes"}}, {"type": "node", "id": 9426889457, "lat": 37.7896132, "lon": -122.4140215, "tags": {"addr:city": "San Francisco", "addr:housenumber": "1008", "addr:state": "CA", "addr:street": "Bush Street", "amenity": "cafe", "check_date": "2023-02-03", "cuisine": "sandwich;breakfast", "internet_access": "no", "name": "Morning Fix Cafe", "opening_hours": "Mo-Sa 07:00-14:00; Su off", "payment:cash": "yes", "payment:credit_cards": "yes", "phone": "+1 415-875-9598", "takeaway": "yes", "wheelchair": "no"}}, {"type": "node", "id": 9427187532, "lat": 37.791264, "lon": -122.405811, "tags": {"addr:city": "San Francisco", "addr:housenumber": "455", "addr:state": "CA", "addr:street": "Grant Avenue", "amenity": "cafe", "check_date": "2021-12-17", "contact:facebook": "HOME-sf-958783184145555", "contact:instagram": "homesf", "cuisine": "coffee_shop", "email": "hello@homecoffeesf.com", "internet_access": "wlan", "name": "Home Coffee Roasters", "opening_hours": "Mo-Fr 07:30-16:00; Sa-Su 08:00-16:00", "opening_hours:url": "https://homecoffeesf.com/", "phone": "+1 415 7805423", "takeaway": "yes", "website": "https://homecoffeesf.com"}}, {"type": "node", "id": 9427236840, "lat": 37.7863951, "lon": -122.409248, "tags": {"addr:city": "San Francisco", "addr:housenumber": "272", "addr:postcode": "94102", "addr:state": "CA", "addr:street": "O'Farrell Street", "amenity": "cafe", "brand": "Gong Cha", "brand:wikidata": "Q5581670", "brand:zh": "\u8ca2\u8336", "check_date": "2023-01-16", "cuisine": "bubble_tea", "int_name": "Gong Cha", "name": "Gong Cha", "name:zh": "\u8ca2\u8336", "opening_hours": "Mo-Th,Su 11:00-19:00; Fr,Sa 11:00-20:00", "opening_hours:signed": "no", "takeaway": "yes"}}, {"type": "node", "id": 9434341039, "lat": 37.7871832, "lon": -122.4163205, "tags": {"addr:city": "San Francisco", "addr:housenumber": "881", "addr:state": "CA", "addr:street": "Post Street", "amenity": "cafe", "check_date": "2023-06-29", "contact:facebook": "https://www.facebook.com/sammiecafe", "contact:instagram": "https://www.instagram.com/sammiecafe", "cuisine": "coffee_shop;sandwich", "email": "sammiecafe@gmail.com", "internet_access": "wlan", "internet_access:fee": "customers", "name": "Sammie Cafe", "old_name": "milkbean", "opening_hours": "08:00-14:00", "outdoor_seating": "no", "payment:credit_cards": "yes", "phone": "+1 415-866-8811", "website": "https://www.sammiecafe.com/", "wheelchair": "yes"}}, {"type": "node", "id": 9513012002, "lat": 37.7903413, "lon": -122.4025611, "tags": {"amenity": "cafe", "check_date": "2023-06-30", "cuisine": "sandwich;yogurt;ice_cream", "description": "Gourmet yogurt, sandwiches", "name": "Caffe Ambrosia", "opening_hours": "Mo-Fr 08:00-17:00; Sa-Su off", "opening_hours:signed": "yes", "payment:credit_cards": "yes"}}, {"type": "node", "id": 9518764060, "lat": 37.7873246, "lon": -122.4075665, "tags": {"addr:city": "San Francisco", "addr:floor": "4", "addr:housenumber": "170", "addr:postcode": "94102", "addr:state": "CA", "addr:street": "O'Farrell Street", "amenity": "cafe", "branch": "Macy's Union Square 4th Floor", "brand": "Starbucks", "brand:wikidata": "Q37158", "check_date": "2024-09-25", "cuisine": "coffee_shop", "indoor": "yes", "level": "3", "name": "Starbucks", "note": "4th floor, looking out onto Union Square", "official_name": "Starbucks Coffee", "opening_hours": "Mo-Th 11:00-19:00; Fr-Sa 10:00-20:00; Su 11:00-18:00", "phone": "+1 415-296-4328", "takeaway": "yes", "website": "https://www.starbucks.com/store-locator/store/10624/macys-union-square-4th-floor-170-o-farrell-st-san-francisco-ca-941022202-us"}}, {"type": "node", "id": 9547878093, "lat": 37.7688505, "lon": -122.428257, "tags": {"addr:city": "San Francisco", "addr:housenumber": "2020", "addr:postcode": "94114", "addr:state": "CA", "addr:street": "Market Street", "amenity": "cafe", "branch": "Safeway San Francisco 1507", "brand": "Starbucks", "brand:wikidata": "Q37158", "check_date": "2022-02-13", "cuisine": "coffee_shop", "indoor": "yes", "name": "Starbucks", "note": "Inside the Safeway", "official_name": "Starbucks Coffee", "phone": "+1 415-861-7660", "ref": "11053", "takeaway": "yes", "website": "https://www.starbucks.com/store-locator/store/11053/safeway-san-francisco-1507-2020-market-st-san-francisco-ca-941141314-us"}}, {"type": "node", "id": 9553542990, "lat": 37.7865852, "lon": -122.4100485, "tags": {"amenity": "cafe", "check_date": "2025-06-20", "fixme": "confirm operation", "indoor": "yes", "level": "0", "name": "Cafe 22"}}, {"type": "node", "id": 9579899926, "lat": 37.7858111, "lon": -122.4288927, "tags": {"amenity": "cafe", "contact:instagram": "yakiniqcafe", "name": "YakiniQ Cafe"}}, {"type": "node", "id": 9581952655, "lat": 37.7851244, "lon": -122.4303303}, {"type": "node", "id": 9589058972, "lat": 37.7815953, "lon": -122.4170675, "tags": {"addr:city": "San Francisco", "addr:housenumber": "390", "addr:state": "CA", "addr:street": "Golden Gate Avenue", "amenity": "cafe", "brand": "Philz Coffee", "brand:wikidata": "Q18156812", "check_date": "2021-08-11", "cuisine": "coffee_shop", "name": "Philz Coffee", "opening_hours": "Mo-Su 06:00-17:00", "takeaway": "yes"}}, {"type": "node", "id": 9589058980, "lat": 37.7813468, "lon": -122.4169904, "tags": {"amenity": "cafe", "brand": "Philz Coffee", "brand:wikidata": "Q18156812", "check_date": "2026-01-11", "cuisine": "coffee_shop", "indoor_seating": "yes", "name": "Philz Coffee", "opening_hours": "Mo-Fr 06:30-18:00; Sa,Su 07:00-18:00", "outdoor_seating": "no", "takeaway": "yes", "wheelchair": "yes"}}, {"type": "node", "id": 9611547717, "lat": 37.7612626, "lon": -122.4308306, "tags": {"amenity": "cafe", "check_date": "2025-04-03", "level": "0", "name": "Le Marais Bakery"}}, {"type": "node", "id": 9649588765, "lat": 37.7817533, "lon": -122.4160101, "tags": {"amenity": "cafe", "check_date": "2023-01-03", "contact:facebook": "fluidcoopsf", "contact:instagram": "wearefluidsf", "cuisine": "coffee_shop", "drink:beer": "yes", "drink:wine": "yes", "email": "info@fluidcoopsf.com", "indoor": "yes", "name": "Fluid Cooperative Cafe", "opening_hours": "Mo-Fr 8:00-14:30", "website": "https://www.fluidcoopsf.com/", "website:menu": "https://www.fluidcoopsf.com/menu", "wheelchair": "yes"}}, {"type": "node", "id": 9657629729, "lat": 37.7878169, "lon": -122.4029002, "tags": {"addr:city": "San Francisco", "addr:state": "CA", "amenity": "cafe", "check_date": "2025-06-07", "cuisine": "bubble_tea", "indoor_seating": "yes", "name": "Junbi Matcha & Tea", "opening_hours": "Mo-Fr 07:00-14:00; Sa-Su off", "outdoor_seating": "yes", "wheelchair": "yes"}}, {"type": "node", "id": 9659806955, "lat": 37.7879961, "lon": -122.4191375, "tags": {"addr:city": "San Francisco", "addr:housenumber": "1138", "addr:state": "CA", "addr:street": "Sutter Street", "amenity": "cafe", "contact:facebook": "LeMaraisBakery", "contact:instagram": "lemaraisbakery", "contact:twitter": "LeMaraisBakery", "email": "info@lemaraisbakery.com", "name": "Le Marais Bakery Market Cafe", "phone": "+1 415 8729694", "website": "https://www.lemaraisbakery.com/"}}, {"type": "node", "id": 9675631719, "lat": 37.7756519, "lon": -122.4226107, "tags": {"addr:housenumber": "242", "addr:street": "Gough Street", "amenity": "cafe", "check_date": "2023-01-05", "name": "Planet Cafe"}}, {"type": "node", "id": 9702050409, "lat": 37.7574765, "lon": -122.4099541, "tags": {"addr:city": "San Francisco", "addr:housenumber": "2761", "addr:postcode": "94110", "addr:state": "CA", "addr:street": "21st Street", "amenity": "cafe", "check_date": "2023-09-27", "cuisine": "coffee_shop", "email": "w@subscribecoffeeshop.com", "internet_access": "wlan", "name": "CoffeeShop", "opening_hours": "07:00-17:00", "outdoor_seating": "yes", "payment:mastercard": "yes", "payment:visa": "yes", "phone": "+1 415-404-8120", "website": "https://subscribecoffeeshop.com/"}}, {"type": "node", "id": 9704672158, "lat": 37.7833267, "lon": -122.420665, "tags": {"addr:city": "San Francisco", "addr:housenumber": "826", "addr:postcode": "94109", "addr:state": "CA", "addr:street": "Van Ness Avenue", "amenity": "cafe", "check_date": "2026-01-30", "contact:facebook": "VanNessCafe", "contact:foursquare": "https://foursquare.com/v/van-ness-cafe-and-gyros/5b68e44c286fda002c22548f", "contact:instagram": "vannesscafe", "contact:tripadvisor": "https://www.tripadvisor.com/Restaurant_Review-g60713-d15175194-Reviews-Van_Ness_Cafe_and_Gyros-San_Francisco_California.html", "contact:yelp": "https://www.yelp.com/biz/van-ness-cafe-and-gyros-san-francisco-3", "cuisine": "mediterranean", "indoor_seating": "yes", "name": "Van Ness Cafe & Gyros", "opening_hours": "Mo-Fr 10:00-21:50; Sa 10:00-26:00; Su 10:00-21:50", "opening_hours:url": "https://www.ordervannesscafe.com/", "outdoor_seating": "no", "phone": "+1 415 5897900", "website": "https://www.ordervannesscafe.com/", "wheelchair": "yes"}}, {"type": "node", "id": 9723831880, "lat": 37.7893608, "lon": -122.4340823, "tags": {"addr:city": "San Francisco", "addr:housenumber": "2123", "addr:postcode": "94115", "addr:state": "CA", "addr:street": "Fillmore Street", "alt_name": "Jane on Fillmore", "amenity": "cafe", "check_date": "2025-12-09", "contact:facebook": "janeonfillmore", "contact:instagram": "janeonfillmore", "cuisine": "coffee_shop;tea;sandwich", "diet:vegetarian": "yes", "dog": "no", "indoor_seating": "yes", "level": "0", "name": "Jane", "opening_hours": "Mo-Fr 07:00-17:00; Sa,Su 08:00-17:00", "outdoor_seating": "parklet", "phone": "+1 415 9315263", "takeaway": "yes", "website": "https://www.itsjane.com/location/jane-on-fillmore/", "website:menu": "https://www.itsjane.com/location/jane-on-fillmore/#menus", "wheelchair": "yes"}}, {"type": "node", "id": 9735505781, "lat": 37.784526, "lon": -122.4179285, "tags": {"addr:city": "San Francisco", "addr:housenumber": "721", "addr:postcode": "94109", "addr:state": "CA", "addr:street": "Larkin Street", "amenity": "cafe", "check_date": "2023-01-08", "contact:instagram": "sweetglorysf", "cuisine": "dessert", "description": "Dessert cafe", "email": "sweetglorysf@hotmail.com", "name": "Sweet Glory", "opening_hours": "Mo,We-Su 10:30-18:00; Tu off", "opening_hours:url": "https://www.sweetglorysf.com/", "outdoor_seating": "no", "phone": "+1 415 7430724", "website": "https://www.sweetglorysf.com/", "wheelchair": "yes"}}, {"type": "node", "id": 9735505803, "lat": 37.7844434, "lon": -122.4179158, "tags": {"addr:city": "San Francisco", "addr:housenumber": "709", "addr:postcode": "94109", "addr:state": "CA", "addr:street": "Larkin Street", "amenity": "cafe", "branch": "SF Tenderloin", "brand": "Quickly", "brand:en": "Quickly", "brand:wikidata": "Q3771463", "brand:zh": "\u5feb\u53ef\u7acb", "cuisine": "bubble_tea", "level": "0", "name": "Quickly", "name:en": "Quickly", "name:zh": "\u5feb\u53ef\u7acb", "note": "Alleged front", "opening_hours": "11:00-19:00", "outdoor_seating": "no", "phone": "+1 415 666 6478", "start_date": "2009-04-18", "takeaway": "yes", "url": "https://www.sfchronicle.com/crime/article/S-F-boba-shop-was-a-front-for-an-international-17162814.php", "website": "http://quicklyusa.com/sftenderloin.html", "website:menu": "https://places.singleplatform.com/quickly-17/menu"}}, {"type": "node", "id": 9790719931, "lat": 37.7650584, "lon": -122.4217155, "tags": {"addr:city": "San Francisco", "addr:housenumber": "3092", "addr:postcode": "94103", "addr:state": "CA", "addr:street": "16th Street", "amenity": "cafe", "cuisine": "breakfast;bakery;coffee_shop", "name": "Manny's", "opening_hours": "Tu-Fr 11:00-21:00; Sa-Su 10:00-16:00", "outdoor_seating": "no", "website": "https://welcometomannys.com/"}}, {"type": "node", "id": 9804914968, "lat": 37.7879598, "lon": -122.3985577}, {"type": "node", "id": 9849528033, "lat": 37.7886617, "lon": -122.4139387, "tags": {"addr:city": "San Francisco", "addr:housenumber": "816", "addr:state": "CA", "addr:street": "Sutter Street", "amenity": "cafe", "check_date": "2024-08-06", "contact:instagram": "https://www.instagram.com/thebirdcagesf", "cuisine": "coffee_shop", "description": "Caf\u00e9, art gallery, gifts, event space rental", "internet_access": "wlan", "internet_access:fee": "customers", "name": "The Bird Cage", "opening_hours": "Tu, Th-Fr 09:00-17:00; We, Sa 09:00-14:00; Su 10:00-14:00", "payment:cash": "yes", "payment:credit_cards": "yes", "website": "https://thebirdcagesf.com/", "wheelchair": "yes"}}, {"type": "node", "id": 9863236237, "lat": 37.7881683, "lon": -122.423429, "tags": {"addr:housenumber": "1452", "addr:street": "Franklin Street", "amenity": "cafe", "check_date": "2024-03-05", "cuisine": "coffee_shop", "internet_access": "wlan", "internet_access:fee": "customers", "name": "Haraz Coffee House", "outdoor_seating": "no", "takeaway": "yes", "wheelchair": "yes"}}, {"type": "node", "id": 9864838652, "lat": 37.774724, "lon": -122.4207064, "tags": {"addr:city": "San Francisco", "addr:housenumber": "22", "addr:postcode": "94102", "addr:state": "CA", "addr:street": "Franklin Street", "amenity": "cafe", "check_date": "2024-08-24", "cuisine": "coffee_shop", "name": "Buoy"}}, {"type": "node", "id": 9877933179, "lat": 37.7881003, "lon": -122.3984151}, {"type": "node", "id": 9879815798, "lat": 37.7896998, "lon": -122.4341646, "tags": {"addr:city": "San Francisco", "addr:housenumber": "2197", "addr:postcode": "94115", "addr:street": "Fillmore Street", "amenity": "cafe", "brand": "Peet's Coffee", "brand:wikidata": "Q1094101", "check_date": "2025-12-09", "cuisine": "coffee_shop", "level": "0", "name": "Peet's Coffee", "opening_hours": "Mo-Su 05:30-19:00", "outdoor_seating": "yes", "takeaway": "yes", "wheelchair": "yes"}}, {"type": "node", "id": 9897737049, "lat": 37.7871903, "lon": -122.403701, "tags": {"addr:housenumber": "705", "addr:street": "Market Street", "amenity": "cafe", "brand": "Blue Bottle Coffee", "brand:wikidata": "Q4928917", "check_date": "2024-06-15", "cuisine": "coffee_shop", "indoor_seating": "yes", "name": "Blue Bottle Coffee", "opening_hours": "06:30-17:30", "outdoor_seating": "yes", "takeaway": "yes"}},